연번,구군명,법정동,행정동,기관명,주소,연락처,운영요일,휴무일,(학기)시작,(학기)종료,(방학)시작,(방학)종료,이용대상,이용요금,full_addr,lon,lat,match_type,matched_query
1,중구,보수동1가,보수동,동광해들지역아동센터,중구 중구로 63(보수동1가),051-246-7755,월-금,"토, 일, 공휴일",10:00,19:00,10:00,19:00,"수급자, 차상위계층, 다문화, 장애인, 탈북민 등 우선보호아동 50% 이상 그외 일반아동",무료,부산광역시 중구 중구로 63(보수동1가),129.028068699186,35.103647298719,address_full,부산광역시 중구 중구로 63(보수동1가)
2,중구,보수동3가,보수동,희망지역아동센터,중구 흑교로45번길 13(보수동3가),051-243-0912,월-금,"토, 일, 공휴일",11:00,20:00,11:00,20:00,"수급자, 차상위계층, 다문화, 장애인, 탈북민 등 우선보호아동 50% 이상 그외 일반아동",무료,부산광역시 중구 흑교로45번길 13(보수동3가),129.023677294097,35.1035751687538,address_full,부산광역시 중구 흑교로45번길 13(보수동3가)
3,중구,영주동,영주1동,지수지역아동센터,중구 대영로 242번길 4(영주동),070-8141-1001,월-금,"토, 일, 공휴일",10:30,19:30,10:30,19:30,"수급자, 차상위계층, 다문화, 장애인, 탈북민 등 우선보호아동 50% 이상 그외 일반아동",무료,부산광역시 중구 대영로 242번길 4(영주동),129.037040117767,35.1117340032294,address_full,부산광역시 중구 대영로 242번길 4(영주동)
4,서구,남부민동,남부민2동,해강지역아동센터,"서구 해돋이로 71, 4층(남부민동)",051-241-1161,월-금,"토, 일, 공휴일",11:00,20:00,11:00,20:00,"수급자, 차상위계층, 다문화, 장애인, 탈북민 등 우선보호아동 50% 이상 그외 일반아동","무료(7,8월 야간연장, 외부일반아동이용료 여부는 미확정)","부산광역시 서구 해돋이로 71, 4층(남부민동)",129.02045626607,35.0853746529089,address_full,"부산광역시 서구 해돋이로 71, 4층(남부민동)"
5,서구,동대신동3가,동대신3동,대신지역아동센터,"서구 구덕로 346번길 17, 3층(동대신동3가)",051-241-5681,월-금,"토, 일, 공휴일",10:00,20:00,10:00,20:00,"수급자, 차상위계층, 다문화, 장애인, 탈북민 등 우선보호아동 50% 이상 그외 일반아동","무료(7,8월 야간연장, 외부일반아동이용료 여부는 미확정)","부산광역시 서구 구덕로 346번길 17, 3층(동대신동3가)",129.016402740392,35.1149577999223,address_full,"부산광역시 서구 구덕로 346번길 17, 3층(동대신동3가)"
6,서구,동대신동3가,동대신3동,원광지역아동센터,서구 구덕로334번길 19-9(동대신동3가),051-241-5855,월-금,"토, 일, 공휴일",11:00,21:00,11:00,21:00,"수급자, 차상위계층, 다문화, 장애인, 탈북민 등 우선보호아동 50% 이상 그외 일반아동","무료(7,8월 야간연장, 외부일반아동이용료 여부는 미확정)",부산광역시 서구 구덕로334번길 19-9(동대신동3가),129.016818304704,35.1142019165094,address_full,부산광역시 서구 구덕로334번길 19-9(동대신동3가)
7,서구,부민동2가,부민동,부민지역아동센터,"서구 임시수도기념로 11-10, 5층(부민동2가)",051-256-6521,월-금,"토, 일, 공휴일",10:00,20:00,10:00,20:00,"수급자, 차상위계층, 다문화, 장애인, 탈북민 등 우선보호아동 50% 이상 그외 일반아동","무료(7,8월 야간연장, 외부일반아동이용료 여부는 미확정)","부산광역시 서구 임시수도기념로 11-10, 5층(부민동2가)",129.019088031364,35.102968083127,address_full,"부산광역시 서구 임시수도기념로 11-10, 5층(부민동2가)"
8,동구,범일동,범일1동,The사랑지역아동센터,"동구 망양로897, 3층(범일동)",051-636-0334,월-금,"토, 일, 공휴일",10:00,20:00,9:00,18:00,"수급자, 차상위계층, 다문화, 장애인 등 우선보호아동 50% 이상 그외 일반아동",무료,"부산광역시 동구 망양로897, 3층(범일동)",129.049485735182,35.1401637238923,address_full,"부산광역시 동구 망양로897, 3층(범일동)"
9,동구,범일동,범일1동,범일지역아동센터,동구 범곡로33번길 40(범일동),051-631-8763,월-토,"일, 공휴일",10:00,20:00,9:00,18:00,"수급자, 차상위계층, 다문화, 장애인 등 우선보호아동 50% 이상 그외 일반아동",무료,부산광역시 동구 범곡로33번길 40(범일동),129.054202164285,35.1396715495505,address_full,부산광역시 동구 범곡로33번길 40(범일동)
10,동구,범일동,범일1동,어울림지역아동센터,동구 범곡북로14번길 21(범일동),051-633-8059,월-금,"토, 일, 공휴일",10:00,20:00,10:00,19:00,"수급자, 차상위계층 등 우선보호아동 50% 이상 그외 일반아동",무료,부산광역시 동구 범곡북로14번길 21(범일동),129.053179071688,35.1417644598549,address_full,부산광역시 동구 범곡북로14번길 21(범일동)
11,동구,범일동,범일1동,우리들의집지역아동센터,동구 망양로889번길 6(범일동),051-637-6090,월-금,"토, 일, 공휴일",11:00,22:00,11:00,22:00,"수급자, 차상위계층, 다문화 등 우선보호아동 50% 이상 그외 일반아동",무료,부산광역시 동구 망양로889번길 6(범일동),129.048482883432,35.1400709253116,address_full,부산광역시 동구 망양로889번길 6(범일동)
12,동구,범일동,범일1동,좌천지역아동센터,"동구중앙대로 495, 3층(범일동)",051-645-6070,월-금,"토, 일, 공휴일",9:00,20:00,8:00,19:00,"수급자, 차상위계층, 장애인, 등 우선보호아동 50% 이상 그외 일반아동",무료,"부산광역시 동구 중앙대로 495, 3층(범일동)",129.056195543619,35.1374221236949,address_full,"부산광역시 동구 중앙대로 495, 3층(범일동)"
13,동구,수정동,수정1동,수정지역아동센터,동구 초량상로 151-5(수정동),051-468-0046,월-토,"일, 공휴일",9:00,20:00,9:00,20:00,"수급자, 차상위계층, 다문화 등 우선보호아동 50% 이상 그외 일반아동",무료(야간연장 돌봄서비스 포함),부산광역시 동구 초량상로 151-5(수정동),129.042444603263,35.1244421763308,address_full,부산광역시 동구 초량상로 151-5(수정동)
14,동구,수정동,수정1동,유앤미지역아동센터,"동구 초량중로 133, 3층(수정동)",051-711-0930,월-토,"일, 공휴일",11:00,22:00,11:00,22:00,수급자 등 우선보호아동 50% 이상 그외 일반아동,무료(야간연장 돌봄서비스 포함),"부산광역시 동구 초량중로 133, 3층(수정동)",129.041480130278,35.1233478295251,address_full,"부산광역시 동구 초량중로 133, 3층(수정동)"
15,동구,수정동,수정2동,꿈나무수정지역아동센터,"동구 수정중로 32, 2층(수정동)",051-468-3035,월-금,"토, 일, 공휴일",10:00,20:00,9:00,19:00,"수급자, 차상위계층, 다문화, 장애인 등 우선보호아동 50% 이상 그외 일반아동",무료,"부산광역시 동구 수정중로 32, 2층(수정동)",129.045100297489,35.1309720355496,address_full,"부산광역시 동구 수정중로 32, 2층(수정동)"
16,동구,수정동,수정2동,부산진행복한홈스쿨지역아동센터,"동구 수정중로 7, 3층(수정동)",051-644-9544,월-금,"토, 일, 공휴일",10:00,20:00,10:00,20:00,"수급자, 차상위계층, 다문화 등 우선보호아동 50% 이상 그외 일반아동",무료,"부산광역시 동구 수정중로 7, 3층(수정동)",129.043744751425,35.1292497077176,address_full,"부산광역시 동구 수정중로 7, 3층(수정동)"
17,동구,수정동,수정2동,어께동무수정지역아동센터,"동구 수정공원로 55, 상가 5호동 101호(수정동, 협성파크맨션)",051-711-2507,월-금,"토, 일, 공휴일",9:00,22:000,9:00,22:00,"수급자, 차상위계층, 다문화, 장애인 등 우선보호아동 50% 이상 그외 일반아동",무료(야간연장 돌봄서비스 포함),"부산광역시 동구 수정공원로 55, 상가 5호동 101호(수정동, 협성파크맨션)",129.039123082264,35.1312113007104,address_full,"부산광역시 동구 수정공원로 55, 상가 5호동 101호(수정동, 협성파크맨션)"
18,동구,수정동,수정4동,한아름지역아동센터,동구 망양로 683(수정동),051-988-4151,월-금,"토, 일, 공휴일",10:00,22:00,9:00,22:00,"수급자, 차상위계층, 다문화, 장애인, 탈북민 등 우선보호아동 50% 이상 그외 일반아동","무료(야간연장 돌봄서비스 포함, 2월부터 운영예정)",부산광역시 동구 망양로 683(수정동),129.040768540042,35.1267692142496,address_full,부산광역시 동구 망양로 683(수정동)
19,동구,좌천동,좌천동,해솔지역아동센터,"동구 망양로 854, 3층(좌천동)",051-635-5300,월-금,"토, 일, 공휴일",10:00,19:00,8:30,18:30,"수급자, 차상위계층, 다문화 등 우선보호아동 50% 이상 그외 일반아동",무료,"부산광역시 동구 망양로 854, 3층(좌천동)",129.047371167739,35.1367881147932,address_full,"부산광역시 동구 망양로 854, 3층(좌천동)"
20,동구,초량동,초량1동,대한지역아동센터,동구 영초길 188 1층(초량동),051-463-6736,월-토,"일, 공휴일",9:00,20:00,9:00,19:00,"수급자, 차상위계층, 다문화 등 우선보호아동 50% 이상 그외 일반아동",무료,부산광역시 동구 영초길 188 1층(초량동),129.035881763497,35.1169200719203,address_full,부산광역시 동구 영초길 188 1층(초량동)
21,동구,초량동,초량1동,우리동네지역아동센터,동구 초량상로 53(초량동),051-466-5543,월-금,"토, 일, 공휴일",10:00,20:00,9:00,18:00,"수급자, 차상위계층 등 우선보호아동 50% 이상 그외 일반아동",무료,부산광역시 동구 초량상로 53(초량동),129.036532550479,35.1170025870701,address_full,부산광역시 동구 초량상로 53(초량동)
22,동구,초량동,초량2동,엘림지역아동센터,동구 초량상로79번길 27-4(초량동),051-466-3880,월-금,"토, 일, 공휴일",10:00,22:00,10:00,22:00,"수급자, 차상위계층, 다문화 등 우선보호아동 50% 이상 그외 일반아동",무료(야간연장 돌봄서비스 포함),부산광역시 동구 초량상로79번길 27-4(초량동),129.036802921179,35.1192982833068,address_full,부산광역시 동구 초량상로79번길 27-4(초량동)
23,동구,초량동,초량6동,모여라지역아동센터,"동구 구봉로 7-1, 2층(초량동)",051-462-6211,월-토,"일, 공휴일",9:00,20:00,8:30,19:00,"수급자, 차상위계층, 다문화 등 우선보호아동 50% 이상 그외 일반아동",무료,"부산광역시 동구 구봉로 7-1, 2층(초량동)",129.03788296029,35.1212628796937,address_full,"부산광역시 동구 구봉로 7-1, 2층(초량동)"
24,동구,초량동,초량6동,보광지역아동센터,"동구 구봉로 63, 5층(초량동)",051-467-7798,월-금,"토, 일, 공휴일",10:00,19:00,9:00,18:00,"수급자, 차상위계층, 다문화 등 우선보호아동 50% 이상 그외 일반아동",무료,"부산광역시 동구 구봉로 63, 5층(초량동)",129.03556654608,35.1250201416121,address_full,"부산광역시 동구 구봉로 63, 5층(초량동)"
25,동구,초량동,초량6동,초량중앙지역아동센터,동구 구봉로59번길 18(초량동),051-468-3767,월-토,"일, 공휴일",9:00,24:00,9:00,24:00,"수급자, 차상위계층, 다문화 등 우선보호아동 50% 이상 그외 일반아동","무료, 단, 야간연장 돌봄서비스 이용시 1일 5,000원",부산광역시 동구 구봉로59번길 18(초량동),129.035069616543,35.1247537225415,address_full,부산광역시 동구 구봉로59번길 18(초량동)
26,영도구,동삼동,동삼1동,동삼동지역아동센터옹달샘,"영도구 동삼로 59번길 14, 2층(동삼동)",051-405-0713,월-토,"일, 공휴일",10:00,20:00,10:00,20:00,"수급자, 차상위계층, 다문화, 장애인, 탈북민 등 우선보호아동 50% 이상 그외 일반아동",무료,"부산광역시 영도구 동삼로 59번길 14, 2층(동삼동)",129.06963266248,35.0786289895765,address_full,"부산광역시 영도구 동삼로 59번길 14, 2층(동삼동)"
27,영도구,동삼동,동삼1동,와치지역아동센터,영도구 함지로79번길 76(동삼동),051-403-4200,월-금,"토, 일, 공휴일",10:30,20:00,10:30,20:00,"수급자, 차상위계층, 다문화, 장애인, 탈북민 등 우선보호아동 50% 이상 그외 일반아동",무료,부산광역시 영도구 함지로79번길 76(동삼동),129.065523726783,35.0759978094185,address_full,부산광역시 영도구 함지로79번길 76(동삼동)
28,영도구,동삼동,동삼1동,임마누엘지역아동센터,"영도구 태종로 704, 2층(동삼동)",051-554-8750,월-금,"토, 일, 공휴일",11:00,20:00,10:00,19:00,"수급자, 차상위계층, 다문화, 장애인, 탈북민 등 우선보호아동 50% 이상 그외 일반아동",무료,"부산광역시 영도구 태종로 704, 2층(동삼동)",129.076570278507,35.0714094899699,address_full,"부산광역시 영도구 태종로 704, 2층(동삼동)"
29,영도구,동삼동,동삼2동,동삼지역아동센터,"영도구 태종로 797, 2층(동삼동)",051-403-5535,월-금,"토, 일, 공휴일",11:00,20:00,11:00,20:00,"수급자, 차상위계층, 다문화, 장애인, 탈북민 등 우선보호아동 50% 이상 그외 일반아동",무료,"부산광역시 영도구 태종로 797, 2층(동삼동)",129.081315136768,35.0651645751102,address_full,"부산광역시 영도구 태종로 797, 2층(동삼동)"
30,영도구,동삼동,동삼3동,꿈꾸는상리지역아동센터,"영도구 상리로 33, 4층(동삼동)",070-7798-0867,월-금,"토, 일, 공휴일",11:00,21:00,10:00,20:00,"수급자, 차상위계층, 다문화, 장애인, 탈북민 등 우선보호아동 50% 이상 그외 일반아동",무료,"부산광역시 영도구 상리로 33, 4층(동삼동)",129.067937389708,35.0846845883966,address_full,"부산광역시 영도구 상리로 33, 4층(동삼동)"
31,영도구,동삼동,동삼3동,영도행복한홈스쿨지역아동센터,"영도구 동삼북로 3, 임대상가 207호, 205호(동삼동, 주공아파트)",051-403-2787,월-금,"토, 일, 공휴일",10:30,19:30,10:30,19:30,"수급자, 차상위계층, 다문화, 장애인, 탈북민 등 우선보호아동 50% 이상 그외 일반아동",무료,"부산광역시 영도구 동삼북로 3, 임대상가 207호, 205호(동삼동, 주공아파트)",129.069223119316,35.0830429741759,address_full,"부산광역시 영도구 동삼북로 3, 임대상가 207호, 205호(동삼동, 주공아파트)"
32,영도구,봉래동1가,봉래1동,영도중앙지역아동센터,"영도구 대교로 50, 3층(봉래동1가, 홀리조이센터)",070-7728-3759,월-금,"토, 일, 공휴일",10:00,21:00,10:00,21:00,"수급자, 차상위계층, 다문화, 장애인, 탈북민 등 우선보호아동 50% 이상 그외 일반아동",무료,"부산광역시 영도구 대교로 50, 3층(봉래동1가, 홀리조이센터)",129.040108197896,35.0949412066879,address_full,"부산광역시 영도구 대교로 50, 3층(봉래동1가, 홀리조이센터)"
33,영도구,신선동2가,신선동,다정지역아동센터,영도구 도래샘길 80(신선동2가),051-417-6664,월-금,"토, 일, 공휴일",11:00,20:00,11:00,20:00,"수급자, 차상위계층, 다문화, 장애인, 탈북민 등 우선보호아동 50% 이상 그외 일반아동",무료,부산광역시 영도구 도래샘길 80(신선동2가),129.047472950397,35.0875937523474,address_full,부산광역시 영도구 도래샘길 80(신선동2가)
34,영도구,신선동2가,신선동,영도원광지역아동센터,영도구 남도여중길 28(신선동2가),070-7011-9549,월-금,"토, 일, 공휴일",11:00,0:00,11:00,0:00,"수급자, 차상위계층, 다문화, 장애인, 탈북민 등 우선보호아동 50% 이상 그외 일반아동","무료, 단, 야간연장 돌봄서비스 이용시 1일 5,000원",부산광역시 영도구 남도여중길 28(신선동2가),129.044508800514,35.0872107715122,address_full,부산광역시 영도구 남도여중길 28(신선동2가)
35,영도구,영선동4가,영선2동,바울지역아동센터,"영도구 해님2길 3, 3층(영선동4가, 바울교회)",010-3551-0501,월-토,"일, 공휴일",11:00,22:00,9:00,22:00,"수급자, 차상위계층, 다문화, 장애인, 탈북민 등 우선보호아동 50% 이상 그외 일반아동","무료, 야간연장 이용 무료","부산광역시 영도구 해님2길 3, 3층(영선동4가, 바울교회)",129.041802461261,35.0844103889444,address_full,"부산광역시 영도구 해님2길 3, 3층(영선동4가, 바울교회)"
36,부산진구,가야동,가야2동,가야지역아동센터,부산진구 가야공원로38번길 74-9(가야동),051-898-0754,월-금,"토, 일, 공휴일",11:00,24:00,11:00,24:00,"수급자, 차상위계층, 다문화, 장애인, 탈북민 등 우선보호아동 50% 이상 그외 일반아동","무료, 단, 야간연장 돌봄서비스 이용시 1일 5,000원",부산광역시 부산진구 가야공원로38번길 74-9(가야동),129.025585233097,35.1503995880739,address_full,부산광역시 부산진구 가야공원로38번길 74-9(가야동)
37,부산진구,가야동,가야2동,예은지역아동센터,부산진구 가야공원로38번길 14-8(가야동),051-894-9991,임시휴업,"토, 일, 공휴일",-,-,-,-,"수급자, 차상위계층, 다문화, 장애인, 탈북민 등 우선보호아동 50% 이상 그외 일반아동",무료,부산광역시 부산진구 가야공원로38번길 14-8(가야동),129.029317451086,35.1503002548861,address_full,부산광역시 부산진구 가야공원로38번길 14-8(가야동)
38,부산진구,가야동,가야2동,풀잎지역아동센터,부산진구 가야공원로63번길 33-5(가야동),051-892-5428,월-금,"토, 일, 공휴일",11:00,22:00,11:00,22:00,"수급자, 차상위계층, 다문화, 장애인, 탈북민 등 우선보호아동 50% 이상 그외 일반아동",무료(야간연장 돌봄서비스 포함),부산광역시 부산진구 가야공원로63번길 33-5(가야동),129.030625819303,35.1488898053777,address_full,부산광역시 부산진구 가야공원로63번길 33-5(가야동)
39,부산진구,개금동,개금2동,은하수지역아동센터,부산진구 복지로 117-12(개금동),070-7546-4926,월-금,"토, 일, 공휴일",10:30,20:00,10:30,20:00,"수급자, 차상위계층, 다문화, 장애인, 탈북민 등 우선보호아동 50% 이상 그외 일반아동",무료,부산광역시 부산진구 복지로 117-12(개금동),129.020163150976,35.1426112063758,address_full,부산광역시 부산진구 복지로 117-12(개금동)
40,부산진구,개금동,개금2동,푸른솔지역아동센터,부산진구 진사로61번길28-8(개금동),051-892-7833,월-금,"토, 일, 공휴일",11:00,20:00,11:00,20:00,"수급자, 차상위계층, 다문화, 장애인, 탈북민 등 우선보호아동 50% 이상 그외 일반아동",무료,부산광역시 부산진구 진사로61번길28-8(개금동),129.017790138253,35.1456385048105,address_full,부산광역시 부산진구 진사로61번길28-8(개금동)
41,부산진구,개금동,개금3동,개금꿈나무지역아동센터,부산진구 백양관문로77번길 140(개금동),070-5151-6912,월-금,"토, 일, 공휴일",10:00,19:00,9:30,18:30,"수급자, 차상위계층, 다문화, 장애인, 탈북민 등 우선보호아동 50% 이상 그외 일반아동",무료,부산광역시 부산진구 백양관문로77번길 140(개금동),129.024995003388,35.1641281314465,address_full,부산광역시 부산진구 백양관문로77번길 140(개금동)
42,부산진구,개금동,개금3동,사랑빛지역아동센터,부산진구 백양관문로77번길 99(개금동),051-893-2690,월-금,"토, 일, 공휴일",11:00,22:00,11:00,22:00,"수급자, 차상위계층, 다문화, 장애인, 탈북민 등 우선보호아동 50% 이상 그외 일반아동",무료(야간연장 돌봄서비스 포함),부산광역시 부산진구 백양관문로77번길 99(개금동),129.025832384166,35.1625471750836,address_full,부산광역시 부산진구 백양관문로77번길 99(개금동)
43,부산진구,당감동,당감1동,당평비전지역아동센터,부산진구 백양대로136번길 37-9(당감동),051-892-9125,월-금,"토, 일, 공휴일",9:30,20::00,9:30,20:00,"수급자, 차상위계층, 다문화, 장애인, 탈북민 등 우선보호아동 50% 이상 그외 일반아동",무료,부산광역시 부산진구 백양대로136번길 37-9(당감동),129.033211578238,35.1618734342875,address_full,부산광역시 부산진구 백양대로136번길 37-9(당감동)
44,부산진구,당감동,당감1동,성지지역아동센터,부산진구 동평로94번길 28(당감동),051-898-5000,월-금,"토, 일, 공휴일",10:00,19:00,10:00,19:00,"수급자, 차상위계층, 다문화, 장애인, 탈북민 등 우선보호아동 50% 이상 그외 일반아동",무료,부산광역시 부산진구 동평로94번길 28(당감동),129.040188030036,35.1643188360238,address_full,부산광역시 부산진구 동평로94번길 28(당감동)
45,부산진구,당감동,당감2동,에이스지역아동센터,부산진구 가야대로703번나길 23(당감동),051-897-2633,월-금,"토, 일, 공휴일",11:00,20:00,11:00,20:00,"수급자, 차상위계층, 다문화, 장애인, 탈북민 등 우선보호아동 50% 이상 그외 일반아동",무료,부산광역시 부산진구 가야대로703번나길 23(당감동),129.047246518556,35.1578244255999,address_full,부산광역시 부산진구 가야대로703번나길 23(당감동)
46,부산진구,당감동,당감4동,부산진지역아동센터,"부산진구 당감서로 72, 3층(당감동)",051-893-0160,월-금,"토, 일, 공휴일",10:00,22:00,10:00,22:00,"수급자, 차상위계층, 다문화, 장애인, 탈북민 등 우선보호아동 50% 이상 그외 일반아동",무료,"부산광역시 부산진구 당감서로 72, 3층(당감동)",129.036976843996,35.1668796663962,address_full,"부산광역시 부산진구 당감서로 72, 3층(당감동)"
47,부산진구,범천동,범천2동,꿈꾸는지역아동센터,부산진구 신암로 51-5(범천동),051-644-0091,월-금,"토, 일, 공휴일",10:00,22:00,9:00,22:00,"수급자, 차상위계층, 다문화, 장애인, 탈북민 등 우선보호아동 50% 이상 그외 일반아동","무료, 단, 야간연장 돌봄서비스 이용시 1일 5,000원",부산광역시 부산진구 신암로 51-5(범천동),129.055304533751,35.1463477848849,address_full,부산광역시 부산진구 신암로 51-5(범천동)
48,부산진구,부암동,부암1동,해피지역아동센터,"부산진구 신천대로 279, 나동 111호(부암동, 럭키무지개타운)",051-809-8895,월-금,"토, 일, 공휴일",10:00,22:00,10:00,22:00,"수급자, 차상위계층, 다문화, 장애인, 탈북민 등 우선보호아동 50% 이상 그외 일반아동",무료,"부산광역시 부산진구 신천대로 279, 나동 111호(부암동, 럭키무지개타운)",129.049997734339,35.1667839334845,address_full,"부산광역시 부산진구 신천대로 279, 나동 111호(부암동, 럭키무지개타운)"
49,부산진구,부암동,부암3동,신애지역아동센터,부산진구 백양순환로 127번길 8(부암동),051-817-8547,월-금,"토, 일, 공휴일",10;00,19:00,10:00,19:00,"수급자, 차상위계층, 다문화, 장애인, 탈북민 등 우선보호아동 50% 이상 그외 일반아동",무료,부산광역시 부산진구 백양순환로 127번길 8(부암동),129.041017535145,35.1695076415037,address_full,부산광역시 부산진구 백양순환로 127번길 8(부암동)
50,부산진구,부암동,부암3동,축복지역아동센터,부산진구 당감서로98번길 20-22(부암동),051-818-4252,월-금,"토, 일, 공휴일",11:00,20:00,11:00,20:00,"수급자, 차상위계층, 다문화, 장애인, 탈북민 등 우선보호아동 50% 이상 그외 일반아동",무료,부산광역시 부산진구 당감서로98번길 20-22(부암동),129.036644286047,35.168704081997,address_full,부산광역시 부산진구 당감서로98번길 20-22(부암동)
51,부산진구,양정동,양정2동,평강지역아동센터,부산진구 중앙대로 978(양정동),051-861-3927,월-금,"토, 일, 공휴일",10:00,21:00,10:00,21:00,"수급자, 차상위계층, 다문화, 장애인, 탈북민 등 우선보호아동 50% 이상 그외 일반아동",무료,부산광역시 부산진구 중앙대로 978(양정동),129.074396379245,35.1765613274956,address_full,부산광역시 부산진구 중앙대로 978(양정동)
52,부산진구,연지동,연지동,수지역아동센터,부산진구 성지로46번길 20-1(연지동),051-803-4964,월-금,"토, 일, 공휴일",10:00,19:00,10:00,19:00,"수급자, 차상위계층, 다문화, 장애인, 탈북민 등 우선보호아동 50% 이상 그외 일반아동",무료,부산광역시 부산진구 성지로46번길 20-1(연지동),129.05545780454,35.1747630774983,address_full,부산광역시 부산진구 성지로46번길 20-1(연지동)
53,부산진구,전포동,전포1동,남부산지역아동센터,부산진구 진남로 300(전포동),051-806-2205,월-금,"토, 일, 공휴일",10:30,24:00,10:30,24:00,"수급자, 차상위계층, 다문화, 장애인, 탈북민 등 우선보호아동 50% 이상 그외 일반아동","무료, 단, 야간연장 돌봄서비스 이용시 1일 5,000원",부산광역시 부산진구 진남로 300(전포동),129.073221738239,35.1523328878183,address_full,부산광역시 부산진구 진남로 300(전포동)
54,부산진구,전포동,전포1동,행복한공부방지역아동센터,부산진구 전포대로190번길 19-1(전포동),051-818-7725,월-금,"토, 일, 공휴일",10:00,20:30,10:00,20:30,"수급자, 차상위계층, 다문화, 장애인, 탈북민 등 우선보호아동 50% 이상 그외 일반아동",무료,부산광역시 부산진구 전포대로190번길 19-1(전포동),129.066659693697,35.1537219856391,address_full,부산광역시 부산진구 전포대로190번길 19-1(전포동)
55,부산진구,전포동,전포2동,전포지역아동센터,"부산진구 진남로 356번길 90, 102동 205호(전포동, 화신아파트)",051-816-9055,월-금,"토, 일, 공휴일",11:00,22:00,11:00,22:00,"수급자, 차상위계층, 다문화, 장애인, 탈북민 등 우선보호아동 50% 이상 그외 일반아동","무료, 단, 야간연장 돌봄서비스 이용시 1일 5,000원","부산광역시 부산진구 진남로 356번길 90, 102동 205호(전포동, 화신아파트)",129.071817333646,35.1599703712554,address_full,"부산광역시 부산진구 진남로 356번길 90, 102동 205호(전포동, 화신아파트)"
56,부산진구,전포동,전포2동,한울타리지역아동센터,"부산진구 서전로57번길 29, 4층(전포동, 효명빌딩",051-805-6036,월-금,"토, 일, 공휴일",10:00,20:30,9:00,19:00,"수급자, 차상위계층, 다문화, 장애인, 탈북민 등 우선보호아동 50% 이상 그외 일반아동",무료,"부산광역시 부산진구 서전로57번길 29, 4층(전포동, 효명빌딩",129.065970356832,35.1590780829152,address_full,"부산광역시 부산진구 서전로57번길 29, 4층(전포동, 효명빌딩"
57,동래구,낙민동,수민동,수안빛지역아동센터,"동래구 충렬대로 238번가길 49-5, 202호(낙민동, 아델리아)",070-8232-7221,월-금,"토, 일, 공휴일",11:00,0:00,11:00,0:00,"수급자, 차상위계층, 다문화, 장애인, 탈북민 등 우선보호아동 50% 이상 그외 일반아동",무료(야간연장 돌봄서비스 포함),"부산광역시 동래구 충렬대로 238번가길 49-5, 202호(낙민동, 아델리아)",129.08722184052,35.1992312770993,address_full,"부산광역시 동래구 충렬대로 238번가길 49-5, 202호(낙민동, 아델리아)"
58,동래구,명륜동,명륜동,동래숲지역아동센터,"동래구 시실로 24번길 10, 4층(명륜동, 동양빌딩)",051-866-3329,월-금,"토, 일, 공휴일",11:30,21:00,11:30,21:00,"수급자, 차상위계층, 다문화, 장애인, 탈북민 등 우선보호아동 50% 이상 그외 일반아동",무료,"부산광역시 동래구 시실로 24번길 10, 4층(명륜동, 동양빌딩)",129.086012174538,35.2164884383443,address_full,"부산광역시 동래구 시실로 24번길 10, 4층(명륜동, 동양빌딩)"
59,동래구,명륜동,명륜동,명륜지역아동센터,"동래구 명륜로 210, 3층(명륜동, 승일빌딩)",051-553-8279,월-금,"토, 일, 공휴일",10:00,22:00,9:00,22:00,"수급자, 차상위계층, 다문화, 장애인, 탈북민 등 우선보호아동 50% 이상 그외 일반아동",무료(야간연장 돌봄서비스 포함),"부산광역시 동래구 명륜로 210, 3층(명륜동, 승일빌딩)",129.083172089085,35.2124759665154,address_full,"부산광역시 동래구 명륜로 210, 3층(명륜동, 승일빌딩)"
60,동래구,명장동,명장1동,아이나라지역아동센터,동래구 명안로 71번길 5(명장동),051-527-9393,월-금,"토, 일, 공휴일",11:00,20:00,10:00,19:00,"수급자, 차상위계층, 다문화, 장애인, 탈북민 등 우선보호아동 50% 이상 그외 돌봄이필요한일반아동",None,부산광역시 동래구 명안로 71번길 5(명장동),129.103801075705,35.2029642735204,address_full,부산광역시 동래구 명안로 71번길 5(명장동)
61,동래구,명장동,명장2동,동래지역아동센터,"동래구 시실로107번길151, 3층(명장동, 동래종합사회복지관)",070-8897-8859,월-금,"토, 일, 공휴일",11:00,20:00,9:00,18:00,"수급자, 차상위계층, 다문화, 장애인, 탈북민 등 우선보호아동 50% 이상 그외 일반아동",무료,"부산광역시 동래구 시실로107번길151, 3층(명장동, 동래종합사회복지관)",129.098583769358,35.2112021283256,address_full,"부산광역시 동래구 시실로107번길151, 3층(명장동, 동래종합사회복지관)"
62,동래구,명장동,명장2동,오해피데이지역아동센터,"동래구 충렬사로67번길11, 301호(명장동, 영산무지개상가)",051-904-7959,월-금,"토, 일, 공휴일",10:00,22:00,10:00,22:00,"수급자, 차상위계층, 다문화, 장애인, 탈북민 등 우선보호아동 50% 이상 그외 일반아동",무료,"부산광역시 동래구 충렬사로67번길11, 301호(명장동, 영산무지개상가)",129.098949955057,35.2048519657316,address_full,"부산광역시 동래구 충렬사로67번길11, 301호(명장동, 영산무지개상가)"
63,동래구,명장동,명장2동,임마누엘지역아동센터,"동래구 시실로 167번길 13, 3층(명장동)",051-529-6692,월-금,"토, 일, 공휴일",9:00,22:00,9:00,22:00,"수급자, 차상위계층, 다문화, 장애인, 탈북민 등 우선보호아동 50% 이상 그외 일반아동",무료(야간연장 돌봄서비스 포함),"부산광역시 동래구 시실로 167번길 13, 3층(명장동)",129.098735126897,35.2093233138162,address_full,"부산광역시 동래구 시실로 167번길 13, 3층(명장동)"
64,동래구,사직동,사직1동,다원지역아동센터,"동래구 아시아드대로 185, 3충(사직동)",070-8807-5877,월-금,"토, 일, 공휴일",10:00,20:00,10:00,19:00,"수급자, 차상위계층, 다문화, 장애인, 탈북민 등 우선보호아동 50% 이상 그외 일반아동",무료,"부산광역시 동래구 아시아드대로 185, 3충(사직동)",129.064593051698,35.2010618473811,address_clean,부산광역시 동래구 아시아드대로 185
65,동래구,사직동,사직2동,보금자리지역아동센터,"동래구 사직북로50번길 49, 2층(사직동)",051-507-1206,월-금,"토, 일, 공휴일",10:00,22:00,10:00,22:00,"수급자, 차상위계층, 다문화, 장애인, 탈북민 등 우선보호아동 50% 이상 그외 일반아동",무료,"부산광역시 동래구 사직북로50번길 49, 2층(사직동)",129.059597856597,35.2015688691907,address_full,"부산광역시 동래구 사직북로50번길 49, 2층(사직동)"
66,동래구,사직동,사직2동,우리들지역아동센터,"동래구 쇠미로119번길36, 2층(사직동)",051-501-2417,월-금,"토, 일, 공휴일",9:00,21:00,9:00,21:00,"다자녀(2인), 수급자, 차상위계층, 한부모, 조손, 다문화, 장애인, 탈북민, 위기가정 등 우선보호아동 5","0% 이상 그외 맞벌이,일반아동무료","부산광역시 동래구 쇠미로119번길36, 2층(사직동)",129.058121817376,35.2030117661415,address_full,"부산광역시 동래구 쇠미로119번길36, 2층(사직동)"
67,동래구,사직동,사직3동,현대재능지역아동센터,동래구 중앙대로 1267번길 57(사직동),070-8841-8499,월-금,"토, 일, 공휴일",10:00,19:00,10:00,19:00,"수급자, 차상위계층, 다문화, 장애인, 탈북민 등 우선보호아동 50% 이상 그외 일반아동",무료,부산광역시 동래구 중앙대로 1267번길 57(사직동),129.074662583285,35.1993344602966,address_full,부산광역시 동래구 중앙대로 1267번길 57(사직동)
68,동래구,수안동,수민동,새나라지역아동센터,"부산 동래구 명륜로112번길 74, 3층(수안동)",051-557-0230,월-금,"토, 일, 공휴일",10:00,20:00,9:00,18:00,"수급자, 차상위계층, 다문화, 장애인, 탈북민 등 우선보호아동 50% 이상 그외 일반아동",무료,"부산광역시 동래구 명륜로112번길 74, 3층(수안동)",129.086904048956,35.2028020717836,address_full,"부산광역시 동래구 명륜로112번길 74, 3층(수안동)"
69,동래구,안락동,안락1동,안락지역아동센터,"동래구 명안로39번길 65, 2층(안락동)",051-524-8155,월-금,"토, 일, 공휴일",10:00,22:00,10:00,22:00,"수급자, 차상위계층, 장애인, 다자녀 가정, 등 우선보호아동 50% 이상 그외 일반아동",무료(야간연장 돌봄서비스 포함),"부산광역시 동래구 명안로39번길 65, 2층(안락동)",129.101044941189,35.2006177968931,address_full,"부산광역시 동래구 명안로39번길 65, 2층(안락동)"
70,동래구,안락동,안락1동,푸른지역아동센터,"동래구 반송로 215, 2층(안락동)",051-528-1925,월-금,"토, 일, 공휴일",9:00,22:00,9:00,22:00,"수급자, 차상위계층, 다문화, 장애인, 탈북민 등 우선보호아동 50% 이상 그외 일반아동",무료(야간연장 돌봄서비스 포함),"부산광역시 동래구 반송로 215, 2층(안락동)",129.097445368017,35.2000761857775,address_full,"부산광역시 동래구 반송로 215, 2층(안락동)"
71,동래구,안락동,안락2동,화목지역아동센터,"동래구 명안로 26번길 47, 3층(안락동)",051-507-9182,월-금,"토, 일, 공휴일",10:00,22:00,10:00,22:00,"수급자, 차상위계층, 다문화, 장애인, 탈북민 등 우선보호아동 50% 이상 그외 일반아동",무료(야간연장 돌봄서비스 포함),"부산광역시 동래구 명안로 26번길 47, 3층(안락동)",129.107025647503,35.198699733276,address_full,"부산광역시 동래구 명안로 26번길 47, 3층(안락동)"
72,동래구,온천동,온천2동,동래튼튼이지역아동센터,동래구 중앙대로1333번길 46-1(온천동),051-555-7032,월-금,"토, 일, 공휴일",10:00,20:00,10:00,20:00,"수급자, 차상위계층, 장애아동, 다자녀 등 우선보호아동 90% 이상 그외 일반아동",무료,부산광역시 동래구 중앙대로1333번길 46-1(온천동),129.074992414738,35.2066748286964,address_full,부산광역시 동래구 중앙대로1333번길 46-1(온천동)
73,동래구,온천동,온천2동,온천제일지역아동센터,"동래구 금강로 19, 4층(온천동)",051-557-9008,월-토,"일, 공휴일",12:00,21:00,10:00,19:00,"수급자, 차상위계층, 다문화, 장애인, 탈북민 등 우선보호아동 50% 이상 그외 일반아동",무료,"부산광역시 동래구 금강로 19, 4층(온천동)",129.073115236185,35.212922518593,address_full,"부산광역시 동래구 금강로 19, 4층(온천동)"
74,동래구,온천동,온천3동,사랑의샘지역아동센터,"동래구 쇠미로221번길 3, 2층(온천동)",070-8612-5686,월-토,"일, 공휴일",10:00,19:00,9:00,18:00,"수급자, 차상위계층, 한부모, 장애아동, 다자녀(2인) 등 우선보호아동 100%",무료,"부산광역시 동래구 쇠미로221번길 3, 2층(온천동)",129.064356969136,35.2099762252973,address_full,"부산광역시 동래구 쇠미로221번길 3, 2층(온천동)"
75,남구,감만동,감만1동,행복한지역아동센터,남구 양지골로 169번길 56(감만동),051-636-0692,월-금,"토, 일, 공휴일",11:00,20:00,11:00,20:00,"수급자, 차상위계층, 다문화, 장애인, 탈북민 등 우선보호아동 50% 이상 그외 일반아동",무료,부산광역시 남구 양지골로 169번길 56(감만동),129.082801728138,35.115988893937,address_full,부산광역시 남구 양지골로 169번길 56(감만동)
76,남구,감만동,감만2동,감만지역아동센터,"남구 석포로 26, 2층(감만동)",051-634-5501,월-토,"일, 공휴일",11:00,20:00,11:00,20:00,"수급자, 차상위계층, 다문화, 장애인, 탈북민 등 우선보호아동 50% 이상 그외 일반아동",무료,"부산광역시 남구 석포로 26, 2층(감만동)",129.083861427935,35.1223445960462,address_full,"부산광역시 남구 석포로 26, 2층(감만동)"
77,남구,감만동,감만2동,비전청소년지역아동센터,"남구 석포로 48, 2층(감만동)",051-633-0556,월-토,"일, 공휴일",12:00,21:00,12:00,21:00,"수급자, 차상위계층, 다문화, 장애인, 탈북민 등 우선보호아동 50% 이상 그외 일반아동",무료,"부산광역시 남구 석포로 48, 2층(감만동)",129.086174056271,35.1230749302794,address_full,"부산광역시 남구 석포로 48, 2층(감만동)"
78,남구,대연동,대연4동,브니엘학습관,"남구 천제등로28번길 50, 상가 306~308호(대연동, 현대아파트)",051-624-5052,월-금,"토, 일, 공휴일",10:00,19:00,10:00,19:00,"수급자, 차상위계층, 다문화, 장애인, 탈북민 등 우선보호아동 50% 이상 그외 일반아동",무료,"부산광역시 남구 천제등로28번길 50, 상가 306~308호(대연동, 현대아파트)",129.086486236616,35.1318109957864,address_full,"부산광역시 남구 천제등로28번길 50, 상가 306~308호(대연동, 현대아파트)"
79,남구,대연동,대연5동,대연지역아동센터,남구 수영로 219번길 59(대연동),051-621-2904,월-금,"토, 일, 공휴일",11:00,20:00,11:00,20:00,"수급자, 차상위계층, 다문화, 장애인, 탈북민 등 우선보호아동 50% 이상 그외 일반아동",무료,부산광역시 남구 수영로 219번길 59(대연동),129.090154328874,35.1377967048658,address_full,부산광역시 남구 수영로 219번길 59(대연동)
80,남구,대연동,대연5동,엄마품에지역아동센터,"남구 진남로 64번길 68, 2~4층(대연동)",051-626-3721,월-금,"토, 일, 공휴일",11:00,20:00,11:00,20:00,"수급자, 차상위계층, 다문화, 장애인, 탈북민 등 우선보호아동 50% 이상 그외 일반아동",무료,"부산광역시 남구 진남로 64번길 68, 2~4층(대연동)",129.088278965402,35.141605446545,address_clean,부산광역시 남구 진남로 64번길 68
81,남구,문현동,문현1동,성분도비둘기공부방,남구 진남로 198번길 6-14(문현동),051-635-2415,월-금,"토, 일, 공휴일",10:00,20:30,10:00,20:30,"수급자, 차상위계층, 다문화, 장애인, 탈북민 등 우선보호아동 50% 이상 그외 일반아동",무료,부산광역시 남구 진남로 198번길 6-14(문현동),129.078102639939,35.1435282624144,address_full,부산광역시 남구 진남로 198번길 6-14(문현동)
82,남구,문현동,문현2동,문현지역아동센터,남구 자유평화로 59번길 6(문현동),070-7766-1318,월-금,"토, 일, 공휴일",11:00,20:00,11:00,20:00,"수급자, 차상위계층, 다문화, 장애인, 탈북민 등 우선보호아동 50% 이상 그외 일반아동",무료,부산광역시 남구 자유평화로 59번길 6(문현동),129.066415427753,35.1416864463225,address_full,부산광역시 남구 자유평화로 59번길 6(문현동)
83,남구,문현동,문현3동,예닮지역아동센터,"남구 문현로 56, 3층(문현동)",051-647-0068,월-금,"토, 일, 공휴일",10:00,19:00,10:00,19:00,"수급자, 차상위계층, 다문화, 장애인, 탈북민 등 우선보호아동 50% 이상 그외 일반아동",무료,"부산광역시 남구 문현로 56, 3층(문현동)",129.075164310776,35.1431846508365,address_full,"부산광역시 남구 문현로 56, 3층(문현동)"
84,남구,문현동,문현4동,밝은누리지역아동센터,"남구 우암로 362번길 13, 2층(문현동)",051-643-1237,월-금,"토, 일, 공휴일",11:00,20:00,11:00,20:00,"수급자, 차상위계층, 다문화, 장애인, 탈북민 등 우선보호아동 50% 이상 그외 일반아동",무료,"부산광역시 남구 우암로 362번길 13, 2층(문현동)",129.067761311658,35.1341138936051,address_full,"부산광역시 남구 우암로 362번길 13, 2층(문현동)"
85,남구,문현동,문현4동,지게골지역아동센터,"남구 지게골로 139-33, 3층(문현동)",051-647-0137,월-금,"토, 일, 공휴일",10:00,19:00,10:00,19:00,"수급자, 차상위계층, 다문화, 장애인, 탈북민 등 우선보호아동 50% 이상 그외 일반아동",무료,"부산광역시 남구 지게골로 139-33, 3층(문현동)",129.076036149382,35.1342642528915,address_full,"부산광역시 남구 지게골로 139-33, 3층(문현동)"
86,남구,용호동,용호1동,남구열린지역아동센터,"남구 용호로 178번길 66, 2~3층(용호동)",051-611-9818,월-금,"토, 일, 공휴일",12:00,21:00,12:00,21:00,"수급자, 차상위계층, 다문화, 장애인, 탈북민 등 우선보호아동 50% 이상 그외 일반아동",무료,"부산광역시 남구 용호로 178번길 66, 2~3층(용호동)",129.107388012203,35.1169664243848,address_clean,부산광역시 남구 용호로 178번길 66
87,남구,용호동,용호1동,새에덴지역아동센터,남구 용호로 90번길 23(용호동),051-624-0691,월-금,"토, 일, 공휴일",10:00,20:00,10:00,20:00,"수급자, 차상위계층, 다문화, 장애인, 탈북민 등 우선보호아동 50% 이상 그외 일반아동",무료,부산광역시 남구 용호로 90번길 23(용호동),129.111334219234,35.1240670587421,address_full,부산광역시 남구 용호로 90번길 23(용호동)
88,남구,용호동,용호1동,익투스지역아동센터,남구 동명로 105번길 50(용호동),070-8683-0153,월-금,"토, 일, 공휴일",11:00,20:00,11:00,20:00,"수급자, 차상위계층, 다문화, 장애인, 탈북민 등 우선보호아동 50% 이상 그외 일반아동",무료,부산광역시 남구 동명로 105번길 50(용호동),129.108508914059,35.1222732156894,address_full,부산광역시 남구 동명로 105번길 50(용호동)
89,남구,용호동,용호1동,참사랑지역아동센터,"남구 동명로 101번길 81, 4층(용호동)",070-5001-1855,월-금,"토, 일, 공휴일",10:30,19:30,10:30,19:30,"수급자, 차상위계층, 다문화, 장애인, 탈북민 등 우선보호아동 50% 이상 그외 일반아동",무료,"부산광역시 남구 동명로 101번길 81, 4층(용호동)",129.107650639161,35.1235663510376,address_full,"부산광역시 남구 동명로 101번길 81, 4층(용호동)"
90,남구,용호동,용호3동,용호지역아동센터,"남구 동명로 160, 2층(용호동)",051-624-1344,월-금,"토, 일, 공휴일",11:00,22:00,11:00,22:00,"수급자, 차상위계층, 다문화, 장애인, 탈북민 등 우선보호아동 50% 이상 그외 일반아동",무료,"부산광역시 남구 동명로 160, 2층(용호동)",129.114191655549,35.119037439045,address_full,"부산광역시 남구 동명로 160, 2층(용호동)"
91,남구,우암동,우암동,꿈샘지역아동센터,"남구 유엔로 1-1, 203호(우암동, 동일상가)",051-632-5165,월-금,"토, 일, 공휴일",11:00,20:00,11:00,20:00,"수급자, 차상위계층, 다문화, 장애인, 탈북민 등 우선보호아동 50% 이상 그외 일반아동",무료,"부산광역시 남구 유엔로 1-1, 203호(우암동, 동일상가)",129.07866638816,35.125613410547,address_full,"부산광역시 남구 유엔로 1-1, 203호(우암동, 동일상가)"
92,북구,구포동,구포1동,낙동지역아동센터,"북구 백양대로 1127, 2층(구포동)",051-333-1848,월-토,"일, 공휴일",10:00,20:00,10:00,20:00,"수급자, 차상위계층, 다문화, 장애인, 탈북민 등 우선보호아동 50% 이상 그외 일반아동",무료,"부산광역시 북구 백양대로 1127, 2층(구포동)",129.001589103293,35.2046926682378,address_full,"부산광역시 북구 백양대로 1127, 2층(구포동)"
93,북구,구포동,구포2동,구남지역아동센터,북구 구남언덕로 21(구포동),070-4162-9002,월-금,"토, 일, 공휴일",10:00,20:00,8:30,20:00,"수급자, 차상위계층, 다문화, 장애인, 탈북민 등 우선보호아동 50% 이상 그외 일반아동",무료,부산광역시 북구 구남언덕로 21(구포동),128.995528836668,35.2017392154102,address_full,부산광역시 북구 구남언덕로 21(구포동)
94,북구,구포동,구포3동,꿈터지역아동센터,"북구 시랑로 103, 2층(구포동)",051-343-1426,월-금,"토, 일, 공휴일",10:00,19:00,9:00,18:00,"수급자, 차상위계층, 다문화, 장애인, 탈북민 등 우선보호아동 50% 이상 그외 일반아동",무료,"부산광역시 북구 시랑로 103, 2층(구포동)",129.007459574159,35.1968773163197,address_full,"부산광역시 북구 시랑로 103, 2층(구포동)"
95,북구,구포동,구포3동,늘해랑지역아동센터,"북구 모분재로120번길 20, 2층(구포동, 세훈빌딩)",051-900-7303,월-금,"토, 일, 공휴일",10:00,19:00,10:00,19:00,"수급자, 차상위계층, 다문화, 장애인, 탈북민 등 우선보호아동 50% 이상 그외 일반아동",무료,"부산광역시 북구 모분재로120번길 20, 2층(구포동, 세훈빌딩)",129.009026798939,35.197187180432,address_full,"부산광역시 북구 모분재로120번길 20, 2층(구포동, 세훈빌딩)"
96,북구,구포동,구포3동,라온지역아동센터,"북구 시랑로21번길 44, 2층(구포동)",051-338-0924,월-금,"토, 일, 공휴일",10:00,19:00,9:00,18:00,"수급자, 차상위계층, 다문화, 장애인, 탈북민 등 우선보호아동 50% 이상 그외 일반아동",무료,"부산광역시 북구 시랑로21번길 44, 2층(구포동)",129.006581622702,35.2037173995206,address_full,"부산광역시 북구 시랑로21번길 44, 2층(구포동)"
97,북구,구포동,구포3동,조은지역아동센터,북구 시랑로 72. 3층(구포동),051-333-0509,월-토,"일, 공휴일",10:00,20:00,8:30,18:00,"수급자, 차상위계층, 다문화, 장애인, 탈북민 등 우선보호아동 50% 이상 그외 일반아동",무료,부산광역시 북구 시랑로 72. 3층(구포동),129.00546110693,35.1992900640782,address_full,부산광역시 북구 시랑로 72. 3층(구포동)
98,북구,구포동,구포3동,해오름지역아동센터,북구 시랑로 122(구포동),051-336-2267,월-토,"일, 공휴일",11:00,20:00,10:00,19:00,"수급자, 차상위계층, 다문화, 장애인, 탈북민 등 우선보호아동 50% 이상 그외 일반아동",무료,부산광역시 북구 시랑로 122(구포동),129.008671149682,35.1956736252093,address_full,부산광역시 북구 시랑로 122(구포동)
99,북구,금곡동,금곡동,글로벌영재지역아동센터,"북구 금곡대로 550번길 30, 202호(금곡동)",051-361-2558,월-금,"토, 일, 공휴일",10:00,22:00,10:00,22:00,"수급자, 차상위계층, 다문화, 장애인, 탈북민 등 우선보호아동 50% 이상 그외 일반아동",무료,"부산광역시 북구 금곡대로 550번길 30, 202호(금곡동)",129.013487219723,35.2562990430652,address_full,"부산광역시 북구 금곡대로 550번길 30, 202호(금곡동)"
100,북구,금곡동,금곡동,반딧불이지역아동센터,북구 금곡대로616번길 10-9(금곡동),051-710-5517,월-금,"토, 일, 공휴일",10:00,20:00,10:00,20:00,"수급자, 차상위계층, 다문화, 장애인, 탈북민 등 우선보호아동 50% 이상 그외 일반아동",무료,부산광역시 북구 금곡대로616번길 10-9(금곡동),129.015196459368,35.2598827791739,address_full,부산광역시 북구 금곡대로616번길 10-9(금곡동)
101,북구,덕천동,덕천1동,1318미래세대지역아동센터,북구 만덕대로65번길 63(덕천동),051-341-4008,월-금,"토, 일, 공휴일",10:00,19:00,10:00,19:00,"수급자, 차상위계층, 다문화, 장애인, 탈북민 등 우선보호아동 50% 이상 그외 일반아동",무료,부산광역시 북구 만덕대로65번길 63(덕천동),129.010902290569,35.2145246453634,address_full,부산광역시 북구 만덕대로65번길 63(덕천동)
102,북구,덕천동,덕천2동,덕천지역아동센터,"북구 모분재로15번길 75(덕천동, 한라아파트상가)",051-337-4223,월-금,"토, 일, 공휴일",10:00,19:00,10:00,19:00,"수급자, 차상위계층, 다문화, 장애인, 탈북민 등 우선보호아동 50% 이상 그외 일반아동",무료,"부산광역시 북구 모분재로15번길 75(덕천동, 한라아파트상가)",129.010161840931,35.2070919745993,address_full,"부산광역시 북구 모분재로15번길 75(덕천동, 한라아파트상가)"
103,북구,덕천동,덕천2동,온누리지역아동센터,북구 의성로 78번길 15-1(덕천동),051-343-4008,월-금,"토, 일, 공휴일",10:00,19:00,10:00,19:00,"수급자, 차상위계층, 다문화, 장애인, 탈북민 등 우선보호아동 50% 이상 그외 일반아동",무료,부산광역시 북구 의성로 78번길 15-1(덕천동),129.009032175373,35.2131711554468,address_full,부산광역시 북구 의성로 78번길 15-1(덕천동)
104,북구,덕천동,덕천3동,윤슬지역아동센터,북구 덕천로 133-1(덕천동),051-581-2992,월-금,"토, 일, 공휴일",11:00,20:00,11:00,20:00,"수급자, 차상위계층, 다문화, 장애인, 탈북민 등 우선보호아동 50% 이상 그외 일반아동",무료,부산광역시 북구 덕천로 133-1(덕천동),129.019029680932,35.2108085583877,address_full,부산광역시 북구 덕천로 133-1(덕천동)
105,북구,만덕동,만덕1동,해바라기지역아동센터,"북구 만덕1로 49 상가동 303호(만덕동, 만덕3휴먼시아아파트)",051-333-1621,월-금,"토, 일, 공휴일",11:00,20:00,9:00,18:00,"수급자, 차상위계층, 다문화, 장애인, 탈북민 등 우선보호아동 50% 이상 그외 일반아동",무료,"부산광역시 북구 만덕1로 49 상가동 303호(만덕동, 만덕3휴먼시아아파트)",129.032171140962,35.2141901917783,address_full,"부산광역시 북구 만덕1로 49 상가동 303호(만덕동, 만덕3휴먼시아아파트)"
106,북구,만덕동,만덕2동,열린지역아동센터,"북구 은행나무로 35번길 11, 2층(만덕동)",051-338-8534,월-금,"토, 일, 공휴일",11:00,20:00,10:00,19:00,"수급자, 차상위계층, 다문화, 장애인, 탈북민 등 우선보호아동 50% 이상 그외 일반아동",무료,"부산광역시 북구 은행나무로 35번길 11, 2층(만덕동)",129.039095792,35.207048729986,address_full,"부산광역시 북구 은행나무로 35번길 11, 2층(만덕동)"
107,북구,화명동,화명1동,샘물지역아동센터,"북구 화명대로 94번길 14, 2층(화명동)",051-337-3856,월-금,"토, 일, 공휴일",12:00,21:00,12:00,21:00,"수급자, 차상위계층, 다문화, 장애인, 탈북민 등 우선보호아동 50% 이상 그외 일반아동",무료,"부산광역시 북구 화명대로 94번길 14, 2층(화명동)",129.017927986754,35.2337157184139,address_full,"부산광역시 북구 화명대로 94번길 14, 2층(화명동)"
108,북구,화명동,화명2동,리틀스쿨지역아동센터,북구 산성로 76-8(화명동),051-331-8763,월-금,"토, 일, 공휴일",10:00,19:00,10:00,19:00,"수급자, 차상위계층, 다문화, 장애인, 탈북민 등 우선보호아동 50% 이상 그외 일반아동",무료,부산광역시 북구 산성로 76-8(화명동),129.021061971596,35.2412220619215,address_full,부산광역시 북구 산성로 76-8(화명동)
109,해운대구,반송동,반송1동,미리내지역아동센터,"해운대구 아랫반송로 21번길 94-9, 1층(반송동)",051-545-2915,월-금,"토, 일, 공휴일",11:00,20:00,11:00,20:00,"수급자, 차상위계층, 다문화, 장애인, 탈북민 등 우선보호아동 50% 이상 그외 일반아동",무료,"부산광역시 해운대구 아랫반송로 21번길 94-9, 1층(반송동)",129.148926072384,35.2278967272306,address_full,"부산광역시 해운대구 아랫반송로 21번길 94-9, 1층(반송동)"
110,해운대구,반송동,반송1동,성분도빛둘레지역아동센터,해운대구 아랫반송로 61-3(반송동),051-544-1236,월-금,"토, 일, 공휴일",10:00,22:00,10:00,22:00,"수급자, 차상위계층, 다문화, 장애인, 탈북민 등 우선보호아동 50% 이상 그외 일반아동",무료,부산광역시 해운대구 아랫반송로 61-3(반송동),129.151261685709,35.2224614763283,address_full,부산광역시 해운대구 아랫반송로 61-3(반송동)
111,해운대구,반송동,반송1동,희망스쿨지역아동센터,"해운대구 아랫반송로29번길 25, 4층(반송동)",051-542-3332,월-금,"토, 일, 공휴일",13:00,22:00,13:00,22:00,"수급자, 차상위계층, 다문화, 장애인, 탈북민 등 우선보호아동 50% 이상 그외 일반아동",무료,"부산광역시 해운대구 아랫반송로29번길 25, 4층(반송동)",129.149745717866,35.2247851439524,address_full,"부산광역시 해운대구 아랫반송로29번길 25, 4층(반송동)"
112,해운대구,반송동,반송2동,1318해피존꿈앤꾼지역아동센터,"해운대구 신반송로 138-2, 302호(반송동, 대성빌라)",051-542-1813,월-금,"토, 일, 공휴일",10:00,22:00,10:00,22:00,"수급자, 차상위계층, 다문화, 장애인, 탈북민 등 우선보호아동 50% 이상 그외 일반아동",무료(야간연장 돌봄서비스 포함),"부산광역시 해운대구 신반송로 138-2, 302호(반송동, 대성빌라)",129.161313101773,35.2300177797659,address_full,"부산광역시 해운대구 신반송로 138-2, 302호(반송동, 대성빌라)"
113,해운대구,반송동,반송2동,명정지역아동센터,"해운대구 윗반송로 51번길 60-24, 4층(반송동)",051-542-7953,월-금,"토, 일, 공휴일",11:00,22:00,11:00,22:00,"수급자, 차상위계층, 다문화, 장애인, 탈북민 등 우선보호아동 50% 이상 그외 일반아동",무료,"부산광역시 해운대구 윗반송로 51번길 60-24, 4층(반송동)",129.156343535654,35.2302842440322,address_full,"부산광역시 해운대구 윗반송로 51번길 60-24, 4층(반송동)"
114,해운대구,반송동,반송2동,반송지역아동센터,해운대구 윗반송로51번길 48-13(반송동),051-545-3335,월-금,"토, 일, 공휴일",10:00,24:00,10:00,24:00,"수급자, 차상위계층, 다문화, 장애인, 탈북민 등 우선보호아동 50% 이상 그외 일반아동",무료(야간연장 돌봄서비스 포함),부산광역시 해운대구 윗반송로51번길 48-13(반송동),129.155880188866,35.2301517438749,address_full,부산광역시 해운대구 윗반송로51번길 48-13(반송동)
115,해운대구,반송동,반송2동,파랑새지역아동센터,해운대구 신반송로 21(반송동),051-927-0115,월-금,"토, 일, 공휴일",9:00,20:00,9:00,19:00,"수급자, 차상위계층, 다문화, 장애인, 탈북민 등 우선보호아동 50% 이상 그외 일반아동",무료,부산광역시 해운대구 신반송로 21(반송동),129.158521186378,35.2289880622082,address_full,부산광역시 해운대구 신반송로 21(반송동)
116,해운대구,반송동,반송2동,해봄지역아동센터,"해운대구 신반송로 200, 나동상가 201호(반송동, 주공아파트)",051-542-1391 051-542-1392,월-금,"토, 일, 공휴일",9:00,19:00,9:00,19:00,"수급자, 차상위계층, 다문화, 장애인, 탈북민 등 우선보호아동 50% 이상 그외 일반아동",무료,"부산광역시 해운대구 신반송로 200, 나동상가 201호(반송동, 주공아파트)",129.158665042853,35.2302888952927,address_full,"부산광역시 해운대구 신반송로 200, 나동상가 201호(반송동, 주공아파트)"
117,해운대구,반여동,반여1동,반여지역아동센터,"해운대구 선수촌로 21번길 21, 2층 33호, 52호, 57호(반여동)",051-523-5509,월-금,"토, 일, 공휴일",10:00,22:00,10:00,22:00,"수급자, 차상위계층, 다문화, 장애인, 탈북민 등 우선보호아동 50% 이상 그외 일반아동",무료,"부산광역시 해운대구 선수촌로 21번길 21, 2층 33호, 52호, 57호(반여동)",129.117283947575,35.1960469017843,address_full,"부산광역시 해운대구 선수촌로 21번길 21, 2층 33호, 52호, 57호(반여동)"
118,해운대구,반여동,반여2동,가람뫼지역아동센터,"해운대구 재반로226번길 72, 상가동 3층(반여동, 현대일성아파 트)",051-784-0488,월-금,"토, 일, 공휴일",12:00,22:00,12:00,22:00,"수급자, 차상위계층, 다문화, 장애인, 탈북민 등 우선보호아동 50% 이상 그외 일반아동",무료(야간연장 돌봄서비스 포함),"부산광역시 해운대구 재반로226번길 72, 상가동 3층(반여동, 현대일성아파 트)",129.133570864271,35.1970218886579,address_full,"부산광역시 해운대구 재반로226번길 72, 상가동 3층(반여동, 현대일성아파 트)"
119,해운대구,반여동,반여2동,반여어깨동무지역아동센터,"해운대구 재반로 200-1, T매장 3층(반여동)",051-781-3856,월-금,"토, 일, 공휴일",09;00,22;00,09;00,22;00,"수급자, 차상위계층, 다문화, 장애인, 탈북민 등 우선보호아동 50% 이상 그외 일반아동",무료,"부산광역시 해운대구 재반로 200-1, T매장 3층(반여동)",129.130839923407,35.1951218131664,address_full,"부산광역시 해운대구 재반로 200-1, T매장 3층(반여동)"
120,해운대구,송정동,송정동,송정지역아동센터,"해운대구 송정중앙로15번길 135, 2층(송정동)",051-702-4529,월-금,"토, 일, 공휴일",11:00,20:00,11:00,20:00,"수급자, 차상위계층, 다문화, 장애인, 탈북민 등 우선보호아동 50% 이상 그외 일반아동",무료,"부산광역시 해운대구 송정중앙로15번길 135, 2층(송정동)",129.205996857012,35.188692799434,address_full,"부산광역시 해운대구 송정중앙로15번길 135, 2층(송정동)"
121,해운대구,우동,우1동,꿈샘지역아동센터,"해운대구 우동2로 71, 2층(우동)",051-741-8301,월-금,"토, 일, 공휴일",10:00,19:00,10:00,19:00,"수급자, 차상위계층, 다문화, 장애인, 탈북민 등 우선보호아동 50% 이상 그외 일반아동",무료,"부산광역시 해운대구 우동2로 71, 2층(우동)",129.156230614196,35.1694389961988,address_full,"부산광역시 해운대구 우동2로 71, 2층(우동)"
122,해운대구,우동,우1동,예선지역아동센터,"해운대구 우동2로 48, 3층(우동)",051-746-9100,월-금,"토, 일, 공휴일",11:00,20:00,11:00,20:00,"수급자, 차상위계층, 다문화, 장애인, 탈북민 등 우선보호아동 50% 이상 그외 일반아동",무료,"부산광역시 해운대구 우동2로 48, 3층(우동)",129.158027523374,35.1679223530659,address_full,"부산광역시 해운대구 우동2로 48, 3층(우동)"
123,해운대구,재송동,재송1동,LH행복꿈터 해운대지역아동센터,해운대구 재반로12번길 16(재송동),051-724-5105,월-금,"토, 일, 공휴일",11:00,20:00,11:00,20:00,"수급자, 차상위계층, 다문화, 장애인, 탈북민 등 우선보호아동 50% 이상 그외 일반아동",무료,부산광역시 해운대구 재반로12번길 16(재송동),129.127532295317,35.1796692135271,address_full,부산광역시 해운대구 재반로12번길 16(재송동)
124,해운대구,재송동,재송1동,하늘가람지역아동센터,"해운대구 재반로 85, 4층(재송동)",051-783-1118,월-토,"일, 공휴일",10:00,21:00,9:00,21:00,"수급자, 차상위계층, 다문화, 장애인, 탈북민 등 우선보호아동 50% 이상 그외 일반아동",무료,"부산광역시 해운대구 재반로 85, 4층(재송동)",129.125340945547,35.1863140044639,address_full,"부산광역시 해운대구 재반로 85, 4층(재송동)"
125,해운대구,재송동,재송2동,미래지역아동센터,"해운대구 해운대로81번길 85, 3층(재송동)",051.782-2850,월-금,"토, 일, 공휴일",10:00,19:00,10:00,19:00,"수급자, 차상위계층, 다문화, 장애인, 탈북민 등 우선보호아동 50% 이상 그외 일반아동",무료,"부산광역시 해운대구 해운대로81번길 85, 3층(재송동)",129.12489303509,35.1911247024261,address_full,"부산광역시 해운대구 해운대로81번길 85, 3층(재송동)"
126,해운대구,재송동,재송2동,재반지역아동센터,"해운대구 재송2로74번길 36, 2,4층(재송동)",051-783-7822,월-금,"토, 일, 공휴일",11:00,20:00,11:00,20:00,"수급자, 차상위계층, 다문화, 장애인, 탈북민 등 우선보호아동 50% 이상 그외 일반아동",무료,"부산광역시 해운대구 재송2로74번길 36, 2,4층(재송동)",129.132814859046,35.1910709053859,address_clean,부산광역시 해운대구 재송2로74번길 36
127,해운대구,재송동,재송2동,즐거운지역아동센터,"해운대구 재송2로74번길 36, 3층(재송동)",051-782-7776,월-금,"토, 일, 공휴일",11:00,20:00,11:00,20:00,"수급자, 차상위계층, 다문화, 장애인, 탈북민 등 우선보호아동 50% 이상 그외 일반아동",무료,"부산광역시 해운대구 재송2로74번길 36, 3층(재송동)",129.132814859046,35.1910709053859,address_full,"부산광역시 해운대구 재송2로74번길 36, 3층(재송동)"
128,해운대구,좌동,좌1동,뉴라이프지역아동센터,"해운대구 대천로 103번길 9, 상가 304호(좌동, 대림2차)",051-702-1745,월-금,"토, 일, 공휴일",11:00,20:00,11:00,20:00,"수급자, 차상위계층, 다문화, 장애인, 탈북민 등 우선보호아동 50% 이상 그외 일반아동",무료,"부산광역시 해운대구 대천로 103번길 9, 상가 304호(좌동, 대림2차)",129.172437294306,35.1748121460862,address_full,"부산광역시 해운대구 대천로 103번길 9, 상가 304호(좌동, 대림2차)"
129,해운대구,좌동,좌3동,좌동지역아동센터,"해운대구 대천로67번길 12, 상가 404호(좌동)",051-746-3389,월-금,"토, 일, 공휴일",11:00,20:00,11:00,20:00,"수급자, 차상위계층, 다문화, 장애인, 탈북민 등 우선보호아동 50% 이상 그외 일반아동",무료,"부산광역시 해운대구 대천로67번길 12, 상가 404호(좌동)",129.168906951459,35.1735606786562,address_full,"부산광역시 해운대구 대천로67번길 12, 상가 404호(좌동)"
130,해운대구,중동,중2동,나눔터지역아동센터,"해운대구 달맞이길 239-11, 상가 202-203호(중동, 달맞이우성빌 라트)",051-746-9107,월-금,"토, 일, 공휴일",10:00,22:00,10:00,22:00,"수급자, 차상위계층, 다문화, 장애인, 탈북민 등 우선보호아동 50% 이상 그외 일반아동",무료(야간연장 돌봄서비스 포함),"부산광역시 해운대구 달맞이길 239-11, 상가 202-203호(중동, 달맞이우성빌 라트)",129.184324509381,35.1622379244233,address_full,"부산광역시 해운대구 달맞이길 239-11, 상가 202-203호(중동, 달맞이우성빌 라트)"
131,사하구,감천동,감천2동,우리누리지역아동센터,사하구 감내1로 234(감천동),051-291-9020,월-금,"토, 일, 공휴일",10:00,19:00,10:00,19:00,"수급자, 차상위계층, 다문화, 장애인, 탈북민 등 우선보호아동 50% 이상 그외 일반아동",무료,부산광역시 사하구 감내1로 234(감천동),129.009531520532,35.0979359506579,address_full,부산광역시 사하구 감내1로 234(감천동)
132,사하구,괴정동,괴정1동,홀리트리지역아동센터,사하구 사하로 151-1(괴정동),051-292-2630,월-금,"토, 일, 공휴일",9:00,19:00,9:00,19:00,"수급자, 차상위계층, 다문화, 장애인, 탈북민 등 우선보호아동 50% 이상 그외 일반아동",무료,부산광역시 사하구 사하로 151-1(괴정동),128.993262034324,35.095405362235,address_full,부산광역시 사하구 사하로 151-1(괴정동)
133,사하구,다대동,다대1동,기쁨지역아동센터,사하구 윤공단로51번길 17(다대동),051-962-6304,월-금,"토, 일, 공휴일",11:00,20:00,11:00,20:00,"수급자, 차상위계층, 다문화, 장애인, 탈북민 등 우선보호아동 50% 이상 그외 일반아동",무료,부산광역시 사하구 윤공단로51번길 17(다대동),128.967450292741,35.0561458065374,address_full,부산광역시 사하구 윤공단로51번길 17(다대동)
134,사하구,다대동,다대1동,다대지역아동센터,사하구 다대동로 55(다대동),051-264-7002,월-금,"토, 일, 공휴일",10:00,22:00,10:00,22:00,"수급자, 차상위계층, 다문화, 장애인, 탈북민 등 우선보호아동 50% 이상 그외 일반아동",무료(야간연장 돌봄서비스 포함),부산광역시 사하구 다대동로 55(다대동),128.973570598182,35.0578362990721,address_full,부산광역시 사하구 다대동로 55(다대동)
135,사하구,다대동,다대1동,몰운대지역아동센터,사하구 다대로 702-2(다대동),051-262-7132,월-토,"일, 공휴일",10:00,20:00,10:00,20:00,"수급자, 차상위계층, 다문화, 장애인, 탈북민 등 우선보호아동 50% 이상 그외 일반아동",무료,부산광역시 사하구 다대로 702-2(다대동),128.964791994591,35.0491045327064,address_full,부산광역시 사하구 다대로 702-2(다대동)
136,사하구,다대동,다대1동,사랑지역아동센터,사하구 윤공단로56번길 66(다대동),051-263-3380,월-토,"일, 공휴일",10:00,19:00,10:00,19:00,"수급자, 차상위계층, 다문화, 장애인, 탈북민 등 우선보호아동 50% 이상 그외 일반아동",무료,부산광역시 사하구 윤공단로56번길 66(다대동),128.970702255302,35.0591200150046,address_full,부산광역시 사하구 윤공단로56번길 66(다대동)
137,사하구,다대동,다대2동,엄마손지역아동센터,사하구 다송로 8-1(다대동),051-266-4202,월-금,"토, 일, 공휴일",9:00,22:00,9:00,22:00,"수급자, 차상위계층, 다문화, 장애인, 탈북민 등 우선보호아동 50% 이상 그외 일반아동",무료(야간연장 돌봄서비스 센터 이용료 직접 문의),부산광역시 사하구 다송로 8-1(다대동),128.980649487159,35.0663306654337,address_full,부산광역시 사하구 다송로 8-1(다대동)
138,사하구,다대동,다대2동,장대현지역아동센터,사하구 다송로72번길 43(다대동),051-263-0909,월-금,"토, 일, 공휴일",11:00,20:00,11:00,20:00,"수급자, 차상위계층, 다문화, 장애인, 탈북민 등 우선보호아동 50% 이상 그외 일반아동",무료,부산광역시 사하구 다송로72번길 43(다대동),128.98182009214,35.0602141808463,address_full,부산광역시 사하구 다송로72번길 43(다대동)
139,사하구,당리동,당리동,사하중앙지역아동센터,"사하구 승학로 123, 1층(당리동)",051-204-0501,월-금,"토, 일, 공휴일",10:00,20:00,10:00,20:00,"수급자, 차상위계층, 다문화, 장애인, 탈북민 등 우선보호아동 50% 이상 그외 일반아동",무료,"부산광역시 사하구 승학로 123, 1층(당리동)",128.980938091078,35.1037548417316,address_full,"부산광역시 사하구 승학로 123, 1층(당리동)"
140,사하구,당리동,당리동,승학지역아동센터,"사하구 제석로 46-1, 4층(당리동)",051-201-1150,월-토,"일, 공휴일",11:00,23:00,11:00,22:00,"수급자, 차상위계층, 다문화, 장애인, 탈북민 등 우선보호아동 50% 이상 그외 일반아동",무료,"부산광역시 사하구 제석로 46-1, 4층(당리동)",128.973776979556,35.1049547277582,address_full,"부산광역시 사하구 제석로 46-1, 4층(당리동)"
141,사하구,당리동,당리동,희망주는지역아동센터,"사하구 동매로 161, 2층(당리동)",051-294-9000,월-금,"토, 일, 공휴일",10:00,20:00,10:00,20:00,"수급자, 차상위계층, 다문화, 장애인, 탈북민 등 우선보호아동 50% 이상 그외 일반아동",무료,"부산광역시 사하구 동매로 161, 2층(당리동)",128.975651106538,35.1014300245646,address_full,"부산광역시 사하구 동매로 161, 2층(당리동)"
142,사하구,신평동,신평1동,느티나무지역아동센터,사하구 다대로 123-4(신평동),051-292-9477,월-금,"토, 일, 공휴일",11:00,20:00,10:00,19:00,"수급자, 차상위계층, 다문화, 장애인, 탈북민 등 우선보호아동 50% 이상 그외 일반아동",무료,부산광역시 사하구 다대로 123-4(신평동),128.978322587099,35.0912986648287,address_full,부산광역시 사하구 다대로 123-4(신평동)
143,사하구,신평동,신평1동,동매사랑지역아동센터,"사하구 장평로 278, 3층(신평동)",051-201-5600,월-금,"토, 일, 공휴일",11:00,20:00,11:00,20:00,"수급자, 차상위계층, 다문화, 장애인, 탈북민 등 우선보호아동 50% 이상 그외 일반아동",무료,"부산광역시 사하구 장평로 278, 3층(신평동)",128.973421880271,35.0909984320317,address_full,"부산광역시 사하구 장평로 278, 3층(신평동)"
144,사하구,신평동,신평2동,신평지역아동센터,"사하구 하신번영로 153번길 66, 2~3층(신평동)",010-8538-3952,월-금,"토, 일, 공휴일",10:00,19:00,10:00,19:00,"수급자, 차상위계층, 다문화, 장애인, 탈북민 등 우선보호아동 50% 이상 그외 일반아동",무료,"부산광역시 사하구 하신번영로 153번길 66, 2~3층(신평동)",128.956371348351,35.096656918628,address_clean,부산광역시 사하구 하신번영로 153번길 66
145,사하구,장림동,장림2동,은항지역아동센터,사하구 두송로 12 (장림동),051-944-2025,월-금,"토, 일, 공휴일",10:00,20:00,10:00,20:00,"수급자, 차상위계층, 다문화, 장애인, 탈북민 등 우선보호아동 50% 이상 그외 일반아동",무료,부산광역시 사하구 두송로 12 (장림동),128.977889791072,35.0797885573574,address_full,부산광역시 사하구 두송로 12 (장림동)
146,사하구,장림동,장림2동,장림지역아동센터,"사하구 두송로26번길 45, 2층(장림동)",070-4300-6006 (010-5223-,월-금,"토, 일, 공휴일",10:30,21:00,10:30,21:00,"수급자, 차상위계층, 다문화, 장애인, 탈북민 등 우선보호아동 50% 이상 그외 일반아동",무료,"부산광역시 사하구 두송로26번길 45, 2층(장림동)",128.980091237616,35.0772766065508,address_full,"부산광역시 사하구 두송로26번길 45, 2층(장림동)"
147,사하구,장림동,장림2동,한마음다문화지역아동센터,"사하구 장평로 115, 4층(장림동)",051-266-5656,월-금,"토, 일, 공휴일",11:00,20:00,11:00,20:00,"수급자, 차상위계층, 다문화, 장애인, 탈북민 등 우선보호아동 50% 이상 그외 일반아동",무료,"부산광역시 사하구 장평로 115, 4층(장림동)",128.97271991936,35.0763715873765,address_full,"부산광역시 사하구 장평로 115, 4층(장림동)"
148,사하구,하단동,하단1동,하단지역아동센터,"사하구 낙동남로 1362, 201호(하단동, 나산리츠)",051-204-1388,월-금,"토, 일, 공휴일",10:00,20:00,10:00,19:00,"수급자, 차상위계층, 다문화, 장애인, 탈북민 등 우선보호아동 50% 이상 그외 일반아동",무료,"부산광역시 사하구 낙동남로 1362, 201호(하단동, 나산리츠)",128.960499893822,35.1059139010905,address_full,"부산광역시 사하구 낙동남로 1362, 201호(하단동, 나산리츠)"
149,금정구,구서동,구서2동,구서지역아동센터,"금정구 금강로578번길 24, 3층(구서동)",051-505-1925,월-금,"토, 일, 공휴일",11:00,22:00,11:00,22:00,"수급자, 차상위계층, 다문화, 장애인, 탈북민 등 우선보호아동 50% 이상 그외 일반아동",무료,"부산광역시 금정구 금강로578번길 24, 3층(구서동)",129.088902033078,35.2587790352828,address_full,"부산광역시 금정구 금강로578번길 24, 3층(구서동)"
150,금정구,남산동,남산동,금샘마을지역아동센터,금정구 팔송로53번길 14(남산동),051-513-2866,월-금,"토, 일, 공휴일",11:00,22:00,11:00,22:00,"수급자, 차상위계층, 다문화, 장애인, 탈북민 등 우선보호아동 50% 이상 그외 일반아동","무료, 단, 야간연장 돌봄서비스 이용시 1일 5,000원",부산광역시 금정구 팔송로53번길 14(남산동),129.086592260514,35.2714225615538,address_full,부산광역시 금정구 팔송로53번길 14(남산동)
151,금정구,남산동,남산동,두레지역아동센터,"금정구 팔송로7번길 21, 2층(남산동)",051-517-5080,월-금,"토, 일, 공휴일",11:00,20:00,11:00,20:00,"수급자, 차상위계층, 다문화, 장애인, 탈북민 등 우선보호아동 50% 이상 그외 일반아동",무료,"부산광역시 금정구 팔송로7번길 21, 2층(남산동)",129.091824006853,35.2711749312618,address_full,"부산광역시 금정구 팔송로7번길 21, 2층(남산동)"
152,금정구,남산동,남산동,예일지역아동센터,"금정구 중앙대로 2003, 4층(남산동)",051-582-7912,월-금,"토, 일, 공휴일",11:00,20:00,10:00,19:00,"수급자, 차상위계층, 다문화, 장애인, 탈북민 등 우선보호아동 50% 이상 그외 일반아동",무료,"부산광역시 금정구 중앙대로 2003, 4층(남산동)",129.091717609948,35.2631914832902,address_full,"부산광역시 금정구 중앙대로 2003, 4층(남산동)"
153,금정구,두구동,선두구동,한나래지역아동센터,"금정구 체육공원로 705-5, 2층(두구동, 인도문화원)",051-508-0340,월-금,"토, 일, 공휴일",10:00,19:00,9:00,18:00,"수급자, 차상위계층, 다문화, 장애인, 탈북민 등 우선보호아동 50% 이상 그외 일반아동",무료,"부산광역시 금정구 체육공원로 705-5, 2층(두구동, 인도문화원)",129.111598797473,35.3032463700247,address_full,"부산광역시 금정구 체육공원로 705-5, 2층(두구동, 인도문화원)"
154,금정구,부곡동,부곡1동,부곡지역아동센터,"금정구 가마실로 37-1, 2층(부곡동)",051-514-4111,월-금,"토, 일, 공휴일",11:00,20:00,11:00,20:00,"수급자, 차상위계층, 다문화, 장애인, 탈북민 등 우선보호아동 50% 이상 그외 일반아동",무료,"부산광역시 금정구 가마실로 37-1, 2층(부곡동)",129.092953230946,35.2244559426597,address_full,"부산광역시 금정구 가마실로 37-1, 2층(부곡동)"
155,금정구,부곡동,부곡2동,누리지역아동센터,"금정구 무학송로 12, 2층(부곡동)",051-512-1044,월-금,"토, 일, 공휴일",12:00,22:00,12:00,22:00,"수급자, 차상위계층, 다문화, 장애인, 탈북민 등 우선보호아동 50% 이상 그외 일반아동","무료, 단, 야간연장 돌봄서비스 이용시 1일 5,000원","부산광역시 금정구 무학송로 12, 2층(부곡동)",129.092427108393,35.2320934290638,address_full,"부산광역시 금정구 무학송로 12, 2층(부곡동)"
156,금정구,서동,서1동,협력지역아동센터,"금정구 서동시장길 4-7, 1층(서동)",051-526-0975,월-금,"토, 일, 공휴일",12:00,22:00,12:00,22:00,"수급자, 차상위계층, 다문화, 장애인, 탈북민 등 우선보호아동 50% 이상 그외 일반아동","무료, 단, 야간연장 돌봄서비스 이용시 1일 5,000원","부산광역시 금정구 서동시장길 4-7, 1층(서동)",129.098707582759,35.2168509863375,address_full,"부산광역시 금정구 서동시장길 4-7, 1층(서동)"
157,금정구,서동,서2동,해오름지역아동센터,"금정구 서명로 9, 3층(서동)",051-525-9797,월-금,"토, 일, 공휴일",12:00,22:00,12:00,22:00,"수급자, 차상위계층, 다문화, 장애인, 탈북민 등 우선보호아동 50% 이상 그외 일반아동","무료, 단, 야간연장 돌봄서비스 이용시 1일 5,000원","부산광역시 금정구 서명로 9, 3층(서동)",129.102187050124,35.2139882981517,address_full,"부산광역시 금정구 서명로 9, 3층(서동)"
158,금정구,서동,서3동,금사나너울지역아동센터,"금정구 금사로67번길 52, 3층(서동)",051-531-6228,월-금,"토, 일, 공휴일",10:00,22:00,10:00,22:00,"수급자, 차상위계층, 다문화, 장애인, 탈북민 등 우선보호아동 50% 이상 그외 일반아동",무료,"부산광역시 금정구 금사로67번길 52, 3층(서동)",129.108502983667,35.220331971374,address_full,"부산광역시 금정구 금사로67번길 52, 3층(서동)"
159,금정구,서동,서3동,서동지역아동센터,금정구 서금로 24-1(서동),051-526-6279,월-금,"토, 일, 공휴일",11:00,20:00,11:00,20:00,"수급자, 차상위계층, 다문화, 장애인, 탈북민 등 우선보호아동 50% 이상 그외 일반아동",무료,부산광역시 금정구 서금로 24-1(서동),129.104328287716,35.2181705203536,address_full,부산광역시 금정구 서금로 24-1(서동)
160,금정구,서동,서3동,지역아동센터예닮,"금정구 서부로16번길 23-4, 3층(서동)",051-529-9096,월-금,"토, 일, 공휴일",9:00,20:00,9:00,20:00,"수급자, 차상위계층, 다문화, 장애인, 탈북민 등 우선보호아동 50% 이상 그외 일반아동",무료,"부산광역시 금정구 서부로16번길 23-4, 3층(서동)",129.104758128022,35.2165266543708,address_full,"부산광역시 금정구 서부로16번길 23-4, 3층(서동)"
161,금정구,장전동,장전1동,글누리지역아동센터,"금정구 수림로75번길 2, 2층(장전동)",051-581-6996,월-금,"토, 일, 공휴일",11:00,22:00,11:00,22:00,"수급자, 차상위계층, 다문화, 장애인, 탈북민 등 우선보호아동 50% 이상 그외 일반아동","무료, 단, 야간연장 돌봄서비스 이용시 1일 5,000원","부산광역시 금정구 수림로75번길 2, 2층(장전동)",129.084004623805,35.2398378081628,address_full,"부산광역시 금정구 수림로75번길 2, 2층(장전동)"
162,금정구,장전동,장전2동,부산동부좋은이웃지역아동센터,"금정구 금정로 35, 3층(장전동)",070-8931-2443,월-금,"토, 일, 공휴일",10:00,19:00,10:00,19:00,"수급자, 차상위계층, 다문화, 장애인, 탈북민 등 우선보호아동 50% 이상 그외 일반아동",무료,"부산광역시 금정구 금정로 35, 3층(장전동)",129.08578703165,35.2278430093408,address_full,"부산광역시 금정구 금정로 35, 3층(장전동)"
163,강서구,대저동,대저1동,강서지역아동센터,"강서구 대저로 63번길 31, 1층(대저동, 강서구종합사회복지관)",051-972-4596,월-금,"토, 일, 공휴일",10:00,19:00,10:00,19:00,"수급자, 차상위계층, 다문화, 장애인, 탈북민 등 우선보호아동 50% 이상 그외 일반아동",무료,"부산광역시 강서구 대저로 63번길 31, 1층(대저동, 강서구종합사회복지관)",128.959338310075,35.2167606770049,address_full,"부산광역시 강서구 대저로 63번길 31, 1층(대저동, 강서구종합사회복지관)"
164,강서구,명지동,명지1동,낙동지역아동센터,강서구 순아강변길 5(명지동),051-710-0583,월-금,"토, 일, 공휴일",11:00,20:00,11:00,20:00,"수급자, 차상위계층, 다문화, 장애인, 탈북민 등 우선보호아동 50% 이상 그외 일반아동",무료,부산광역시 강서구 순아강변길 5(명지동),128.902819257797,35.1197618601388,address_full,부산광역시 강서구 순아강변길 5(명지동)
165,강서구,신호동,신호동,신호지역아동센터,강서구 신호산단5로 48-20(신호동),051-941-3309,월-금,"토, 일, 공휴일",10:00,19:00,10:00,19:00,"수급자, 차상위계층, 다문화, 장애인, 탈북민 등 우선보호아동 50% 이상 그외 일반아동",무료,부산광역시 강서구 신호산단5로 48-20(신호동),128.878119550732,35.0825159550841,keyword,부산광역시 강서구 신호지역아동센터
166,강서구,천성동,가덕도동,천성지역아동센터,강서구 가덕해안로751번길 49(천성동),051-972-7843,월-토,"일, 공휴일",13:00,22:00,13:00,22:00,"수급자, 차상위계층, 다문화, 장애인, 탈북민 등 우선보호아동 50% 이상 그외 일반아동",무료,부산광역시 강서구 가덕해안로751번길 49(천성동),128.814380176193,35.0312289884476,address_full,부산광역시 강서구 가덕해안로751번길 49(천성동)
167,연제구,거제동,거제1동,교대지역아동센터,"연제구 중앙대로1235번길 37, 1층(거제동, 경원골든빌라)",051-501-1660,월-금,"토, 일, 공휴일",10:00,19:00,9:00,18:00,"수급자, 차상위계층, 다문화, 장애인, 탈북민 등 우선보호아동 50% 이상 그외 일반아동",무료,"부산광역시 연제구 중앙대로1235번길 37, 1층(거제동, 경원골든빌라)",129.077275604249,35.1966882848799,address_full,"부산광역시 연제구 중앙대로1235번길 37, 1층(거제동, 경원골든빌라)"
168,연제구,거제동,거제2동,세계비전지역아동센터,"연제구 아시아드대로 24, 301호, 302호, 제비201호(거제동, 삼도 빌딩)",051-505-0630,월-금,"토, 일, 공휴일",11:00,20:00,11:00,20:00,"수급자, 차상위계층, 다문화, 장애인, 탈북민 등 우선보호아동 50% 이상 그외 일반아동",무료,"부산광역시 연제구 아시아드대로 24, 301호, 302호, 제비201호(거제동, 삼도 빌딩)",129.069585405417,35.1873396725207,address_full,"부산광역시 연제구 아시아드대로 24, 301호, 302호, 제비201호(거제동, 삼도 빌딩)"
169,연제구,거제동,거제3동,누리샘지역아동센터,연제구 거제대로 198(거제동),051-852-8393,월-금,"토, 일, 공휴일",10;00,19:00,9:00,18:00,"수급자, 차상위계층, 다문화, 장애인, 탈북민 등 우선보호아동 50% 이상 그외 일반아동",무료,부산광역시 연제구 거제대로 198(거제동),129.072701135557,35.1844844030634,address_full,부산광역시 연제구 거제대로 198(거제동)
170,연제구,연산동,연산3동,연산지역아동센터,연제구 금련로38번길 77(연산동),051-867-1562,월-금,"토, 일, 공휴일",11:00,22:00,11:00,22:00,"수급자, 차상위계층, 다문화, 장애인, 탈북민 등 우선보호아동 50% 이상 그외 일반아동",무료,부산광역시 연제구 금련로38번길 77(연산동),129.093474752681,35.1717898170248,address_full,부산광역시 연제구 금련로38번길 77(연산동)
171,연제구,연산동,연산4동,징검다리지역아동센터,"연제구 중앙대로1150번길 25, 상가A동 101호(연산동, 창성골든 빌)",051-868-6279,월-금,"토, 일, 공휴일",10:00,21:30,10:00,21:30,"수급자, 차상위계층, 다문화, 장애인, 탈북민 등 우선보호아동 50% 이상 그외 일반아동",무료,"부산광역시 연제구 중앙대로1150번길 25, 상가A동 101호(연산동, 창성골든 빌)",129.081975571533,35.1907518435575,address_full,"부산광역시 연제구 중앙대로1150번길 25, 상가A동 101호(연산동, 창성골든 빌)"
172,연제구,연산동,연산4동,한빛지역아동센터,"연제구 쌍미천로84번길 71, 2층(연산동)",051-863-8877,월-금,"토, 일, 공휴일",10:00,19:00,10;00,19:00,"수급자, 차상위계층, 다문화, 장애인, 탈북민 등 우선보호아동 50% 이상 그외 일반아동",무료,"부산광역시 연제구 쌍미천로84번길 71, 2층(연산동)",129.08916254406,35.180534120301,address_full,"부산광역시 연제구 쌍미천로84번길 71, 2층(연산동)"
173,연제구,연산동,연산5동,행복나눔지역아동센터,"연제구 거제천로118번길 47, 2층(연산동)",051-903-9006,월-금,"토, 일, 공휴일",10;00,22:00,10;00,22:00,"수급자, 차상위계층, 다문화, 장애인, 탈북민 등 우선보호아동 50% 이상 그외 일반아동",무료,"부산광역시 연제구 거제천로118번길 47, 2층(연산동)",129.077089534564,35.1832539100568,address_full,"부산광역시 연제구 거제천로118번길 47, 2층(연산동)"
174,연제구,연산동,연산6동,다원지역아동센터,연제구 쌍미천로 61(연산동),051-865-0555,월-금,"토, 일, 공휴일",11:00,20:00,11:00,20:00,"수급자, 차상위계층, 다문화, 장애인, 탈북민 등 우선보호아동 50% 이상 그외 일반아동",무료,부산광역시 연제구 쌍미천로 61(연산동),129.08903289929,35.1784065706762,address_full,부산광역시 연제구 쌍미천로 61(연산동)
175,연제구,연산동,연산6동,연제지역아동센터,"연제구 월드컵대로58번길 28, 1층(연산동)",051-868-0411,월-금,"토, 일, 공휴일",11:00,20:00,11:00,20:00,"수급자, 차상위계층, 다문화, 장애인, 탈북민 등 우선보호아동 50% 이상 그외 일반아동",무료,"부산광역시 연제구 월드컵대로58번길 28, 1층(연산동)",129.085948051199,35.1796258521628,address_full,"부산광역시 연제구 월드컵대로58번길 28, 1층(연산동)"
176,연제구,연산동,연산8동,성심지역아동센터,"연제구 고분로143번길 14, 2층(연산동)",051-852-0339,월-금,"토, 일, 공휴일",11:00,22:00,11:00,22:00,"수급자, 차상위계층, 다문화, 장애인, 탈북민 등 우선보호아동 50% 이상 그외 일반아동",무료,"부산광역시 연제구 고분로143번길 14, 2층(연산동)",129.098511031633,35.1860957454272,address_full,"부산광역시 연제구 고분로143번길 14, 2층(연산동)"
177,연제구,연산동,연산9동,다모아지역아동센터,연제구 과정로237번길 31(연산동),051-927-7099,월-금,"토, 일, 공휴일",10;00,19:00,10;00,19:00,"수급자, 차상위계층, 다문화, 장애인, 탈북민 등 우선보호아동 50% 이상 그외 일반아동",무료,부산광역시 연제구 과정로237번길 31(연산동),129.102905453618,35.1868152968478,address_full,부산광역시 연제구 과정로237번길 31(연산동)
178,연제구,연산동,연산9동,예다빈지역아동센터,"연제구 온천천남로 110, 51동 209호(연산동, 한양아파트)",051-753-5909,월-금,"토, 일, 공휴일",12:00,21:00,12:00,21:00,"수급자, 차상위계층, 다문화, 장애인, 탈북민 등 우선보호아동 50% 이상 그외 일반아동",무료,"부산광역시 연제구 온천천남로 110, 51동 209호(연산동, 한양아파트)",129.100628084087,35.1907586181256,address_full,"부산광역시 연제구 온천천남로 110, 51동 209호(연산동, 한양아파트)"
179,수영구,광안동,광안1동,광안해늘지역아동센터,수영구 수영로642번길 37(광안동),051-752-0281,월-금,"토, 일, 공휴일",10:00,19:00,9:00,18:00,"수급자, 차상위계층, 다문화, 장애인, 탈북민 등 우선보호아동 50% 이상 그외 일반아동",무료,부산광역시 수영구 수영로642번길 37(광안동),129.116290615184,35.1627298023631,address_full,부산광역시 수영구 수영로642번길 37(광안동)
180,수영구,광안동,광안4동,한솔지역아동센터,"수영구 호암로30번길 6, 2층(광안동)",051-757-9234,월-금,"토, 일, 공휴일",10:00,19:00,10:00,19:00,"수급자, 차상위계층, 다문화, 장애인, 탈북민 등 우선보호아동 50% 이상 그외 일반아동",무료,"부산광역시 수영구 호암로30번길 6, 2층(광안동)",129.109981448847,35.1568758035454,address_full,"부산광역시 수영구 호암로30번길 6, 2층(광안동)"
181,수영구,망미동,광안3동,수영지역아동센터,"수영구 망미번영로38번길 87, 3층(망미동)",051-755-1864,월-금,"토, 일, 공휴일",10:00,19:00,9:00,18:00,"수급자, 차상위계층, 다문화, 장애인, 탈북민 등 우선보호아동 50% 이상 그외 일반아동",무료,"부산광역시 수영구 망미번영로38번길 87, 3층(망미동)",129.112854635032,35.1683345830314,address_full,"부산광역시 수영구 망미번영로38번길 87, 3층(망미동)"
182,수영구,망미동,망미1동,망미지역아동센터,수영구 망미로8번길 28-1(망미동),051-758-8452,월-금,"토, 일, 공휴일",10:00,19:00,10:00,19:00,"수급자, 차상위계층, 다문화, 장애인, 탈북민 등 우선보호아동 50% 이상 그외 일반아동",무료,부산광역시 수영구 망미로8번길 28-1(망미동),129.103704295961,35.1722848687868,address_full,부산광역시 수영구 망미로8번길 28-1(망미동)
183,수영구,민락동,민락동,참좋은지역아동센터,"수영구민락로34번길 25, 2층(민락동)",051-751-0643,월-토,"일, 공휴일",10:00,19:00,9:00,18:00,"수급자, 차상위계층, 다문화, 장애인, 탈북민 등 우선보호아동 50% 이상 그외 일반아동",무료,"부산광역시 수영구 민락로34번길 25, 2층(민락동)",129.122708636832,35.1583909873488,address_full,"부산광역시 수영구 민락로34번길 25, 2층(민락동)"
184,사상구,감전동,감전동,사상해오름지역아동센터,사상구 새벽시장로56번가길41 2층(감전동),051-328-5995,월-금,"토, 일, 공휴일",11:00,20:00,9:00,18:00,"수급자, 차상위계층, 다문화, 장애인, 탈북민 등 우선보호아동 50% 이상 그외 일반아동",무료,부산광역시 사상구 새벽시장로56번가길41 2층(감전동),128.977942683799,35.1541029334098,address_full,부산광역시 사상구 새벽시장로56번가길41 2층(감전동)
185,사상구,감전동,감전동,아가페지역아동센터,"사상구 새벽시장로63번길 42, 2층(감전동)",070-7543-4619,월-금,"토, 일, 공휴일",10:00,19:00,9:00,18:00,"수급자, 차상위계층, 다문화, 장애인, 탈북민 등 우선보호아동 50% 이상 그외 일반아동",무료,"부산광역시 사상구 새벽시장로63번길 42, 2층(감전동)",128.981483752616,35.156982709419,address_full,"부산광역시 사상구 새벽시장로63번길 42, 2층(감전동)"
186,사상구,괘법동,괘법동,괘내행복마을지역아동센터,사상구 백양대로 646번나길 22(괘법동),051-316-1511,월-금,"토, 일, 공휴일",10:00,19:00,10:00,19:00,"수급자, 차상위계층, 다문화, 장애인, 탈북민 등 우선보호아동 50% 이상 그외 일반아동",무료,부산광역시 사상구 백양대로 646번나길 22(괘법동),128.98922502729,35.1635871349373,address_full,부산광역시 사상구 백양대로 646번나길 22(괘법동)
187,사상구,괘법동,괘법동,사랑의집지역아동센터,사상구 광장로105번길 17(괘법동),051-322-2832,월-토,"일,공휴일",10:00,19:00,9:00,18:00,"수급자, 차상위계층, 다문화, 장애인, 탈북민 등 우선보호아동 50% 이상 그외 일반아동",무료,부산광역시 사상구 광장로105번길 17(괘법동),128.987789219964,35.1636648720316,address_full,부산광역시 사상구 광장로105번길 17(괘법동)
188,사상구,덕포동,덕포1동,디딤돌지역아동센터,사상구 사상로310번길 75-5(덕포동),051-302-1279,월-금,"토, 일, 공휴일",10:00,19:30,9:30,19:00,"수급자, 차상위계층, 다문화, 장애인, 탈북민 등 우선보호아동 50% 이상 그외 일반아동",무료,부산광역시 사상구 사상로310번길 75-5(덕포동),128.986812219357,35.1710802699891,address_full,부산광역시 사상구 사상로310번길 75-5(덕포동)
189,사상구,덕포동,덕포1동,희망지역아동센터,"사상구 사상로 275, 3층(덕포동)",051-304-5098,월-금,"토, 일, 공휴일",11:00,20:00,9:00,18:00,"수급자, 차상위계층, 다문화, 장애인, 탈북민 등 우선보호아동 50% 이상 그외 일반아동",무료,"부산광역시 사상구 사상로 275, 3층(덕포동)",128.982244338201,35.1693858558721,address_full,"부산광역시 사상구 사상로 275, 3층(덕포동)"
190,사상구,덕포동,덕포2동,덕포영재지역아동센터,사상구 백양대로 766 (덕포동),051-302-6036,월-금,"토, 일, 공휴일",11:00,20:00,11:00,20:00,"수급자, 차상위계층, 다문화, 장애인, 탈북민 등 우선보호아동 50% 이상 그외 일반아동",무료,부산광역시 사상구 백양대로 766 (덕포동),128.988685632402,35.1751749992593,address_full,부산광역시 사상구 백양대로 766 (덕포동)
191,사상구,모라동,모라1동,사랑지역아동센터,사상구 백양대로934번길 42-1(모라동),051-312-6752,월-금,"토, 일, 공휴일",10:00,20:00,10:00,20:00,"수급자, 차상위계층, 다문화, 장애인, 탈북민 등 우선보호아동 50% 이상 그외 일반아동",무료,부산광역시 사상구 백양대로934번길 42-1(모라동),128.993456154513,35.1899276726406,address_full,부산광역시 사상구 백양대로934번길 42-1(모라동)
192,사상구,모라동,모라1동,새솔지역아동센터,"사상구 백양대로 906, 102동 102호(모라동, 우성아파트)",051-316-0025,월-금,"토, 일, 공휴일",10:00,19:00,10:00,19:00,"수급자, 차상위계층, 다문화, 장애인, 탈북민 등 우선보호아동 50% 이상 그외 일반아동",무료,"부산광역시 사상구 백양대로 906, 102동 102호(모라동, 우성아파트)",128.992227465024,35.1884675454805,address_full,"부산광역시 사상구 백양대로 906, 102동 102호(모라동, 우성아파트)"
193,사상구,모라동,모라3동,모라지역아동센터,사상구 모라로110번길 129(모라동),070-4924-9848,월-금,"토, 일, 공휴일",10:00,19:00,10:00,19:00,"수급자, 차상위계층, 다문화, 장애인, 탈북민 등 우선보호아동 50% 이상 그외 일반아동",무료,부산광역시 사상구 모라로110번길 129(모라동),128.997874101631,35.1849447285069,address_full,부산광역시 사상구 모라로110번길 129(모라동)
194,사상구,모라동,모라3동,백양지역아동센터,사상구 모라로192번길 20-33(모라동),051-711-0077,월-금,"토, 일, 공휴일",11:00,20:00,10:00,19:00,"수급자, 차상위계층, 다문화, 장애인, 탈북민 등 우선보호아동 50% 이상 그외 일반아동",무료,부산광역시 사상구 모라로192번길 20-33(모라동),128.999348120046,35.1837282371326,address_full,부산광역시 사상구 모라로192번길 20-33(모라동)
195,사상구,삼락동,삼락동,문일지역아동센터,사상구 사상로309번길 68(삼락동),051-305-7069,월-금,"토, 일, 공휴일",11:00,20:00,10:00,19:00,"수급자, 차상위계층, 다문화, 장애인, 탈북민 등 우선보호아동 50% 이상 그외 일반아동",무료,부산광역시 사상구 사상로309번길 68(삼락동),128.97957362167,35.1728165234979,address_full,부산광역시 사상구 사상로309번길 68(삼락동)
196,사상구,엄궁동,엄궁동,샘물지역아동센터,"사상구 대동로 40, 3층(엄궁동)",051-322-0675,월-금,"토, 일, 공휴일",10:00,20:00,9:00,18:00,"수급자, 차상위계층, 다문화, 장애인, 탈북민 등 우선보호아동 50% 이상 그외 일반아동",무료,"부산광역시 사상구 대동로 40, 3층(엄궁동)",128.974510457507,35.134405702746,address_full,"부산광역시 사상구 대동로 40, 3층(엄궁동)"
197,사상구,주례동,주례1동,사상구지역아동센터,사상구 백양대로 527(주례동),070-4335-8438,월-금,"토, 일, 공휴일",10:00,20:00,10:00,19:00,"수급자, 차상위계층, 다문화, 장애인, 탈북민 등 우선보호아동 50% 이상 그외 일반아동",무료,부산광역시 사상구 백양대로 527(주례동),128.994783401706,35.1554302845925,address_full,부산광역시 사상구 백양대로 527(주례동)
198,사상구,주례동,주례2동,문화지역아동센터,사상구 가야대로366번길 125(주례동),051-312-2585,월-금,"토, 일, 공휴일",10:00,19:00,9:00,18:00,"수급자, 차상위계층, 다문화, 장애인, 탈북민 등 우선보호아동 50% 이상 그외 일반아동",무료,부산광역시 사상구 가야대로366번길 125(주례동),129.013662855205,35.1457620709036,address_full,부산광역시 사상구 가야대로366번길 125(주례동)
199,사상구,주례동,주례2동,주례지역아동센터,사상구 가야대로366번길 63-6(주례동),070-7763-1649,월-금,"토, 일, 공휴일",11:00,20:00,11:00,20:00,"수급자, 차상위계층, 다문화, 장애인, 탈북민 등 우선보호아동 50% 이상 그외 일반아동",무료,부산광역시 사상구 가야대로366번길 63-6(주례동),129.013284297502,35.1481428628606,address_full,부산광역시 사상구 가야대로366번길 63-6(주례동)
200,사상구,주례동,주례3동,새생명지역아동센터,"사상구 주례로 10번길 131, 3층(주례동)",051-311-5199,월-금,"토, 일, 공휴일",10:00,19:00,10:00,19:00,"수급자, 차상위계층, 다문화, 장애인, 탈북민 등 우선보호아동 50% 이상 그외 일반아동",무료,"부산광역시 사상구 주례로 10번길 131, 3층(주례동)",129.004294954112,35.1491715853839,address_full,"부산광역시 사상구 주례로 10번길 131, 3층(주례동)"
201,사상구,학장동,학장동,부산꿈지역아동센터,"사상구 대동로 110-13, 1층(학장동, 부산유치원)",070-8800-8849,월-금,"토, 일, 공휴일",10:00,21:00,10:00,21:00,"수급자, 차상위계층, 다문화, 장애인, 탈북민 등 우선보호아동 50% 이상 그외 일반아동",무료,"부산광역시 사상구 대동로 110-13, 1층(학장동, 부산유치원)",128.980267521703,35.1387112931047,address_full,"부산광역시 사상구 대동로 110-13, 1층(학장동, 부산유치원)"
202,사상구,학장동,학장동,학장지역아동센터,사상구 학감대로 49번길 28-70(학장동),051-311-4014,월-금,"토, 일, 공휴일",10:00,19:00,10:00,19:00,"수급자, 차상위계층, 다문화, 장애인, 탈북민 등 우선보호아동 50% 이상 그외 일반아동",무료,부산광역시 사상구 학감대로 49번길 28-70(학장동),128.989744360593,35.1386514369452,address_full,부산광역시 사상구 학감대로 49번길 28-70(학장동)
203,기장군,기장읍,기장읍,교리지역아동센터,"기장군 기장읍 차성로417번길 25, 2층",051-724-0907,월-금,"토, 일, 공휴일",10:00,20:00,12:00,20:00,"수급자, 차상위계층, 다문화, 장애인, 탈북민 등 우선보호아동 50% 이상 그외 일반아동",무료,"부산광역시 기장군 기장읍 차성로417번길 25, 2층",129.215738657215,35.256463868378,address_full,"부산광역시 기장군 기장읍 차성로417번길 25, 2층"
204,기장군,기장읍,기장읍,꿈나무지역아동센터,"기장군 기장읍 대청로36번길 11-12, 1층",051-723-1213,월-금,"토, 일, 공휴일",10:00,20:00,10:00,20:00,"수급자, 차상위계층, 다문화, 장애인, 탈북민 등 우선보호아동 50% 이상 그외 일반아동",무료,"부산광역시 기장군 기장읍 대청로36번길 11-12, 1층",129.214920000617,35.2369285238856,address_full,"부산광역시 기장군 기장읍 대청로36번길 11-12, 1층"
205,기장군,기장읍,기장읍,무양지역아동센터,"기장군 기장읍 차성동로5번길 32, 101호(테마파크빌 1차)",051-723-0621,월-금,"토, 일, 공휴일",11:00,20:00,11:00,21:00,"수급자, 차상위계층, 다문화, 장애인, 탈북민 등 우선보호아동 50% 이상 그외 일반아동",무료,"부산광역시 기장군 기장읍 차성동로5번길 32, 101호(테마파크빌 1차)",129.214560958267,35.2384916034869,address_full,"부산광역시 기장군 기장읍 차성동로5번길 32, 101호(테마파크빌 1차)"
206,기장군,기장읍,기장읍,행복지역아동센터,"기장군 기장읍 차성동로122번길 10, 1층",051-721-4977,월-금,"토, 일, 공휴일",10:00,22:00,10:00,22:00,"수급자, 차상위계층, 다문화, 장애인, 탈북민 등 우선보호아동 50% 이상 그외 일반아동","무료, 단, 야간연장 돌봄서비스 이용시 1일 5,000원","부산광역시 기장군 기장읍 차성동로122번길 10, 1층",129.2175332469,35.2484094904319,address_full,"부산광역시 기장군 기장읍 차성동로122번길 10, 1층"
207,기장군,일광읍,일광읍,온드림지역아동센터,"기장군 일광읍 해빛로 29, 204동 104호(일광자이푸르지오2차)",051-703-7052,월-금,"토, 일, 공휴일",10:00,20:00,9:00,21:00,"수급자, 차상위계층, 다문화, 장애인, 탈북민 등 우선보호아동 50% 이상 그외 일반아동",무료,"부산광역시 기장군 일광읍 해빛로 29, 204동 104호(일광자이푸르지오2차)",129.224075807701,35.266508511069,address_full,"부산광역시 기장군 일광읍 해빛로 29, 204동 104호(일광자이푸르지오2차)"
208,기장군,정관읍,정관읍,글로벌지역아동센터,"기장군 정관읍 산단4로 139, 108동 105호(정관 동원로얄듀크1 차)",051-727-0601,월-금,"토, 일, 공휴일",10:00,20:00,10:00,20:00,"수급자, 차상위계층, 다문화, 장애인, 탈북민 등 우선보호아동 50% 이상 그외 일반아동",무료,"부산광역시 기장군 정관읍 산단4로 139, 108동 105호(정관 동원로얄듀크1 차)",129.191582018242,35.3186287861828,address_full,"부산광역시 기장군 정관읍 산단4로 139, 108동 105호(정관 동원로얄듀크1 차)"
209,기장군,정관읍,정관읍,모전지역아동센터,"기장군 정관읍 정관1로 18, 105동 101호(이지더원아파트)",051-728-0399,월-금,"토, 일, 공휴일",10:00,19:00,9:00,18:00,"수급자, 차상위계층, 다문화, 장애인, 탈북민 등 우선보호아동 50% 이상 그외 일반아동",무료,"부산광역시 기장군 정관읍 정관1로 18, 105동 101호(이지더원아파트)",129.163228660489,35.339608265985,address_full,"부산광역시 기장군 정관읍 정관1로 18, 105동 101호(이지더원아파트)"
210,기장군,정관읍,정관읍,사랑샘지역아동센터,"기장군 정관읍 정관로 580, 3층 307호(사랑샘프라자)",051-728-7668,월-금,"토, 일, 공휴일",10:00,20:00,10:00,20:00,"수급자, 차상위계층, 다문화, 장애인, 탈북민 등 우선보호아동 50% 이상 그외 일반아동",무료,"부산광역시 기장군 정관읍 정관로 580, 3층 307호(사랑샘프라자)",129.177080295577,35.3206321107406,address_full,"부산광역시 기장군 정관읍 정관로 580, 3층 307호(사랑샘프라자)"
211,기장군,정관읍,정관읍,신정LCC지역아동센터,"기장군 정관읍 용수로 10, 5층",051-727-0191,월-토,"일, 공휴일",9:00,22:00,9:00,22:00,"수급자, 차상위계층, 다문화, 장애인, 탈북민 등 우선보호아동 50% 이상 그외 일반아동","무료, 단, 야간연장 돌봄서비스 이용시 1일 5,000원","부산광역시 기장군 정관읍 용수로 10, 5층",129.179792629106,35.3255226061173,address_full,"부산광역시 기장군 정관읍 용수로 10, 5층"
212,기장군,정관읍,정관읍,이레지역아동센터,"기장군 정관읍 구연방곡로 10, 106동 103호(정관 센트럴 파크)",051-724-0079,월-금,"토, 일, 공휴일",11:00,24:00,10:30,20:00,"수급자, 차상위계층, 다문화, 장애인, 탈북민 등 우선보호아동 50% 이상 그외 일반아동",무료,"부산광역시 기장군 정관읍 구연방곡로 10, 106동 103호(정관 센트럴 파크)",129.185257823533,35.3208722774513,address_full,"부산광역시 기장군 정관읍 구연방곡로 10, 106동 103호(정관 센트럴 파크)"
